,Unnamed: 0,dateSold,propertyType,lotAreaValue,address,imgSrc,price,listingDateTime,longitude,latitude,listingStatus,zpid,livingArea,daysOnZillow,bedrooms,bathrooms,country,currency,lotAreaUnit,hasImage,listingSubType.is_newHome
0,0,1644566400000,SINGLE_FAMILY,5.02,"10610 Vickers Dr, Vienna, VA 22181",https://photos.zillowstatic.com/fp/64a9f210f037dc52f2508ee16eb69e07-p_e.jpg,3000000,,-77.31457,38.91275,RECENTLY_SOLD,51766633,5138.0,-1,4.0,6.0,USA,USD,sqft,True,
1,1,1644566400000,SINGLE_FAMILY,0.28,"2315 Tanglevale Dr, Vienna, VA 22181",https://photos.zillowstatic.com/fp/d567ec1a74d4f4b1c474f0294850f2f9-p_e.jpg,901000,,-77.288086,38.901722,RECENTLY_SOLD,51771108,2521.0,-1,4.0,3.0,USA,USD,acres,True,
2,2,1644566400000,SINGLE_FAMILY,0.94,"9925 Coach Rd, Vienna, VA 22181",https://photos.zillowstatic.com/fp/8ef8d2655b9b60436286f3012f267391-p_e.jpg,903500,,-77.29022,38.916992,RECENTLY_SOLD,51745471,2850.0,-1,4.0,3.0,USA,USD,sqft,True,
3,3,1644566400000,SINGLE_FAMILY,10018.8,"1921 Aubrey Place Ct, Vienna, VA 22182",https://photos.zillowstatic.com/fp/f3015597ee8082357d1859a0ca3ec755-p_e.jpg,875000,,-77.28347,38.919266,RECENTLY_SOLD,51745950,2226.0,-1,5.0,3.0,USA,USD,sqft,True,
4,4,1644480000000,SINGLE_FAMILY,0.36,"518 Walker St SW, Vienna, VA 22180",https://photos.zillowstatic.com/fp/e6be08a30e745b95f2140e0c19a010d6-p_e.jpg,795000,,-77.253296,38.88193,RECENTLY_SOLD,51803746,1433.0,-1,0.0,0.0,USA,USD,acres,True,
5,5,1644220800000,SINGLE_FAMILY,0.52,"10407 Stone Ridge Ln, Vienna, VA 22182",https://photos.zillowstatic.com/fp/b365ea04de8d413ed72048de380df1fb-p_e.jpg,1115000,,-77.30529,38.94098,RECENTLY_SOLD,51743345,3036.0,-1,4.0,3.0,USA,USD,acres,True,
6,6,1644220800000,SINGLE_FAMILY,0.57,"1696 Brittenford Ct, Vienna, VA 22182",https://photos.zillowstatic.com/fp/29b5b8dd75ea0cfc47aaa6959c8623d9-p_e.jpg,1653000,,-77.30145,38.946682,RECENTLY_SOLD,59786220,6058.0,-1,5.0,5.0,USA,USD,acres,True,
7,7,1643961600000,SINGLE_FAMILY,0.32,"609 Gibson Dr SW, Vienna, VA 22180",https://photos.zillowstatic.com/fp/51c59bc4c0ea9ca69e6e2ca1224732bd-p_e.jpg,3700,,-77.26735,38.889442,RECENTLY_SOLD,51772186,3279.0,-1,6.0,4.0,USA,USD,acres,True,
8,8,1643356800000,SINGLE_FAMILY,1.08,"1621 Hicks Dr, Vienna, VA 22182",https://photos.zillowstatic.com/fp/bd803fd9554445adb261013debcf2dfe-p_e.jpg,830000,,-77.26844,38.932655,RECENTLY_SOLD,51744914,2956.0,-1,4.0,2.0,USA,USD,sqft,True,
9,9,1643356800000,SINGLE_FAMILY,0.28,"2108 Woodford Rd, Vienna, VA 22182",https://photos.zillowstatic.com/fp/31b94cd88b6ea940e07be127f1375916-p_e.jpg,960000,,-77.23964,38.90522,RECENTLY_SOLD,51773712,3359.0,-1,5.0,3.0,USA,USD,acres,True,
10,10,1643270400000,SINGLE_FAMILY,10454.4,"8726 Litwalton Ct, Vienna, VA 22182",https://photos.zillowstatic.com/fp/2131f278bb3022cdbff52b9a82d8be37-p_e.jpg,855000,,-77.24121,38.902317,RECENTLY_SOLD,51777337,2668.0,-1,4.0,3.0,USA,USD,sqft,True,
11,11,1643097600000,SINGLE_FAMILY,2.32,"10233 Vale Rd, Vienna, VA 22181",https://photos.zillowstatic.com/fp/32c58d44efd61dac41b42743ed5aead6-p_e.jpg,2500000,,-77.29923,38.901863,RECENTLY_SOLD,51767681,8928.0,-1,6.0,8.0,USA,USD,sqft,True,
12,12,1643097600000,SINGLE_FAMILY,0.79,"9820 Spring Ridge Ln, Vienna, VA 22182",https://photos.zillowstatic.com/fp/b707d122d94a265ade0e0b899f5f4173-p_e.jpg,1239000,,-77.28501,38.955303,RECENTLY_SOLD,51725151,4282.0,-1,4.0,5.0,USA,USD,acres,True,
13,13,1643097600000,SINGLE_FAMILY,0.49,"116 Fardale St SE, Vienna, VA 22180",https://photos.zillowstatic.com/fp/d1d506d601123d33accb367ff9b44db0-p_e.jpg,2025000,,-77.247406,38.88972,RECENTLY_SOLD,51776836,7253.0,-1,7.0,7.0,USA,USD,acres,True,
14,14,1643097600000,SINGLE_FAMILY,0.47,"1713 Fox Run Ct, Vienna, VA 22182",https://photos.zillowstatic.com/fp/568368132f525164e93e1017ea15c7c9-p_e.jpg,750000,,-77.30085,38.940994,RECENTLY_SOLD,51743290,3052.0,-1,4.0,3.0,USA,USD,acres,True,
15,15,1643011200000,SINGLE_FAMILY,10018.8,"406 Plum St SW, Vienna, VA 22180",https://photos.zillowstatic.com/fp/3cf22e21bd53245acd709f699d81925b-p_e.jpg,1740000,,-77.26518,38.89498,RECENTLY_SOLD,51772664,5190.0,-1,5.0,5.0,USA,USD,sqft,True,
16,16,1642752000000,SINGLE_FAMILY,0.27,"114 Harmony Dr SE, Vienna, VA 22180",https://photos.zillowstatic.com/fp/18f615ca133c3f923aa016a8df821fe5-p_e.jpg,1700000,,-77.25213,38.89493,RECENTLY_SOLD,51772327,6800.0,-1,6.0,7.0,USA,USD,acres,True,
17,17,1642752000000,SINGLE_FAMILY,10454.4,"413 Yeonas Dr SW, Vienna, VA 22180",https://photos.zillowstatic.com/fp/9e75bc6fcabb3e38ef5cf442e837e4ed-p_e.jpg,1640000,,-77.25692,38.885155,RECENTLY_SOLD,51803471,4983.0,-1,6.0,6.0,USA,USD,sqft,True,
18,18,1642752000000,SINGLE_FAMILY,0.54,"10104 Tamarack Dr, Vienna, VA 22182",https://photos.zillowstatic.com/fp/dfb078be5a343a26bbca6d46e1ae5b66-p_e.jpg,880000,,-77.294975,38.935028,RECENTLY_SOLD,51743421,2685.0,-1,5.0,3.0,USA,USD,acres,True,
19,19,1642665600000,SINGLE_FAMILY,0.25,"507 Valley Dr SE, Vienna, VA 22180",https://photos.zillowstatic.com/fp/7766b85f7ff759f50614dcb7ad7fdfef-p_e.jpg,1739715,,-77.2549,38.901592,RECENTLY_SOLD,51772954,1008.0,-1,5.0,6.0,USA,USD,acres,True,
20,20,1642406400000,SINGLE_FAMILY,10454.4,"8336 Carnegie Dr, Vienna, VA 22180",https://photos.zillowstatic.com/fp/08a0fa453017c80ecbf2b6407ba4abcb-p_e.jpg,812000,,-77.23383,38.88354,RECENTLY_SOLD,51808154,1792.0,-1,3.0,3.0,USA,USD,sqft,True,
21,21,1642147200000,SINGLE_FAMILY,0.55,"1539 Red Rock Ct, Vienna, VA 22182",https://photos.zillowstatic.com/fp/7656c41c2445be5cbaa869ba1a6fc309-p_e.jpg,656500,,-77.27625,38.942604,RECENTLY_SOLD,51744531,2494.0,-1,4.0,4.0,USA,USD,acres,True,
22,22,1642147200000,SINGLE_FAMILY,6098.4,"8261 Electric Ave, Vienna, VA 22182",https://photos.zillowstatic.com/fp/2b320264415b88d75db48cfe7afa9cde-p_e.jpg,810000,,-77.231544,38.899574,RECENTLY_SOLD,51776820,1583.0,-1,3.0,3.0,USA,USD,sqft,True,
23,23,1642147200000,SINGLE_FAMILY,0.34,"1533 Red Rock Ct, Vienna, VA 22182",https://photos.zillowstatic.com/fp/a11bce72099beff530f8d6f2a17a71a4-p_e.jpg,670000,,-77.27744,38.942734,RECENTLY_SOLD,51744528,2868.0,-1,4.0,4.0,USA,USD,acres,True,
24,24,1642147200000,SINGLE_FAMILY,0.65,"1170 Old Tolson Mill Rd, McLean, VA 22102","https://maps.googleapis.com/maps/api/staticmap?mobile=false&sensor=true&maptype=satellite&size=575x242&zoom=17&center=38.95852279663086,-77.25259399414062&key=AIzaSyBJsNQO5ZeG-XAbqqWLKwG08fWITSxg33w&signature=03_3cnncfBCpDRh_NLmjJJ9S_q4=",862000,,-77.252594,38.958523,RECENTLY_SOLD,51725463,1256.0,-1,3.0,2.0,USA,USD,acres,,
25,25,1642147200000,SINGLE_FAMILY,0.92,"10507 Walter Thompson Dr, Vienna, VA 22181",https://photos.zillowstatic.com/fp/571ccd1252f8b67bfe9e9a8263f3d75b-p_e.jpg,1225000,,-77.314026,38.914368,RECENTLY_SOLD,51766746,4300.0,-1,5.0,4.0,USA,USD,acres,True,
26,26,1642060800000,SINGLE_FAMILY,5662.8,"2796 Miles Stone Dr, Vienna, VA 22181",https://photos.zillowstatic.com/fp/e1b4dbae5a1933e44a6fe738f2b2783c-p_e.jpg,1050000,,-77.28913,38.88333,RECENTLY_SOLD,51803325,2842.0,-1,4.0,4.0,USA,USD,sqft,True,
27,27,1641974400000,SINGLE_FAMILY,0.27,"2546 Villanova Ct, Vienna, VA 22180","https://maps.googleapis.com/maps/api/staticmap?mobile=false&sensor=true&maptype=satellite&size=575x242&zoom=17&center=38.886722564697266,-77.23335266113281&key=AIzaSyBJsNQO5ZeG-XAbqqWLKwG08fWITSxg33w&signature=7X6DmX0rjuAqirH8nERKTqI_K7A=",700000,,-77.23335,38.886723,RECENTLY_SOLD,51808212,1828.0,-1,4.0,3.0,USA,USD,acres,,
28,28,1641974400000,SINGLE_FAMILY,0.89444444444444,"1362 Tate Modern Ln, Great Falls, VA 22102","https://maps.googleapis.com/maps/api/staticmap?mobile=false&sensor=true&maptype=satellite&size=575x242&zoom=17&center=38.95390319824219,-77.2623519897461&key=AIzaSyBJsNQO5ZeG-XAbqqWLKwG08fWITSxg33w&signature=UZrxAKA1WGJuUV2fJEbJloAynZY=",2734486,,-77.26235,38.953903,RECENTLY_SOLD,306650166,,-1,,,USA,USD,acres,,
30,30,1641801600000,SINGLE_FAMILY,,"2615 Glengyle Dr, Vienna, VA 22181",https://photos.zillowstatic.com/fp/a2a56824279bf2cce184a87201a168f2-p_e.jpg,350000,,-77.27921,38.89328,RECENTLY_SOLD,51771414,1141.0,-1,3.0,2.0,USA,USD,,True,
32,32,1641801600000,SINGLE_FAMILY,0.3,"927 Fairway Dr NE, Vienna, VA 22180",https://photos.zillowstatic.com/fp/be0b769edfe9b36c8f2d59d77d3a026c-p_e.jpg,1125000,,-77.253624,38.917492,RECENTLY_SOLD,51746504,2081.0,-1,5.0,5.0,USA,USD,acres,True,
33,33,1641542400000,SINGLE_FAMILY,0.92,"10164 Clover Glen Dr, Vienna, VA 22181",https://photos.zillowstatic.com/fp/8f6255d5d010ac838fab041fbcc01ae5-p_e.jpg,1215000,,-77.29371,38.922203,RECENTLY_SOLD,51744382,3924.0,-1,4.0,4.0,USA,USD,acres,True,
34,34,1641542400000,SINGLE_FAMILY,2.48,"1620 Crowell Rd, Vienna, VA 22182",https://photos.zillowstatic.com/fp/38e51a94b3b4e87e82ab36a6648edd33-p_e.jpg,1500000,,-77.30811,38.952667,RECENTLY_SOLD,51723969,4567.0,-1,5.0,5.0,USA,USD,sqft,True,
35,35,1641542400000,SINGLE_FAMILY,0.4,"1009 Mountfort Ct SW, Vienna, VA 22180",https://photos.zillowstatic.com/fp/61f05a2d620a9ea63b737c5cf6de4702-p_e.jpg,2395205,,-77.26148,38.88523,RECENTLY_SOLD,51804229,6242.0,-1,6.0,7.0,USA,USD,acres,True,
36,36,1641542400000,SINGLE_FAMILY,0.28875114784206,"510 Kibler Cir SW, Vienna, VA 22180",https://photos.zillowstatic.com/fp/5f40ca0bbb80678c1f2a54a7aa0d5360-p_e.jpg,750000,,-77.262856,38.88778,RECENTLY_SOLD,51803964,2072.0,-1,4.0,2.0,USA,USD,acres,True,
37,37,1641542400000,SINGLE_FAMILY,10379.0,"617 Truman Cir SW, Vienna, VA 22180",https://photos.zillowstatic.com/fp/ea3c3cc612e061163629aad3b8e88375-p_e.jpg,700000,,-77.26681,38.886448,RECENTLY_SOLD,51804054,1958.0,-1,3.0,1.0,USA,USD,sqft,True,
38,38,1641456000000,SINGLE_FAMILY,0.33,"409 Tapawingo Rd SW, Vienna, VA 22180",https://photos.zillowstatic.com/fp/6230d25f38ee4b2c82a15e4966602487-p_e.jpg,2150000,,-77.26253,38.890034,RECENTLY_SOLD,51772062,6575.0,-1,6.0,6.0,USA,USD,acres,True,True
39,39,1641369600000,SINGLE_FAMILY,0.3,"8503 Stonewall Dr, Vienna, VA 22180",https://photos.zillowstatic.com/fp/3a4cc62b4083da28bd89cec391f51923-p_e.jpg,825000,,-77.239746,38.890015,RECENTLY_SOLD,51776870,2256.0,-1,4.0,3.0,USA,USD,acres,True,
41,1,1644566400000,SINGLE_FAMILY,10018.8,"1921 Aubrey Place Ct, Vienna, VA 22182",https://photos.zillowstatic.com/fp/f3015597ee8082357d1859a0ca3ec755-p_e.jpg,875000,,-77.28347,38.919266,RECENTLY_SOLD,51745950,2226.0,-1,5.0,3.0,USA,USD,sqft,True,
43,3,1644566400000,SINGLE_FAMILY,0.28,"2315 Tanglevale Dr, Vienna, VA 22181",https://photos.zillowstatic.com/fp/d567ec1a74d4f4b1c474f0294850f2f9-p_e.jpg,901000,,-77.288086,38.901722,RECENTLY_SOLD,51771108,2521.0,-1,4.0,3.0,USA,USD,acres,True,
120,0,1641369600000,SINGLE_FAMILY,5.0,"1536 Windstone Dr, Vienna, VA 22182",https://photos.zillowstatic.com/fp/f4feb3534d784b2731bb204dcc9f8e1a-p_e.jpg,1275000,,-77.29515,38.94795,RECENTLY_SOLD,51723986,5800.0,-1,5.0,5.0,USA,USD,sqft,True,
121,1,1641283200000,SINGLE_FAMILY,0.46981175390266,"2221 Chain Bridge Rd, Vienna, VA 22182","https://maps.googleapis.com/maps/api/staticmap?mobile=false&sensor=true&maptype=satellite&size=575x242&zoom=17&center=38.91140365600586,-77.24818420410156&key=AIzaSyBJsNQO5ZeG-XAbqqWLKwG08fWITSxg33w&signature=SdmaVOadr_4yOfUJndr-iMcv0ow=",740000,,-77.248184,38.911404,RECENTLY_SOLD,51773440,1370.0,-1,3.0,2.5,USA,USD,acres,,
122,2,1641283200000,SINGLE_FAMILY,6098.4,"8321 Electric Ave, Vienna, VA 22182",https://photos.zillowstatic.com/fp/1b55418d124a887467a419fbd6b43f45-p_e.jpg,755000,,-77.23243,38.899956,RECENTLY_SOLD,51776790,1958.0,-1,3.0,4.0,USA,USD,sqft,True,
123,3,1640937600000,SINGLE_FAMILY,0.25,"1858 Foxstone Dr, Vienna, VA 22182",https://photos.zillowstatic.com/fp/feb1ddb8b1625f102b48fddf40b9b74f-p_e.jpg,1275000,,-77.260056,38.91704,RECENTLY_SOLD,51746866,3906.0,-1,5.0,5.0,USA,USD,acres,True,
124,4,1640937600000,SINGLE_FAMILY,0.34,"202 Elm St SW, Vienna, VA 22180",https://photos.zillowstatic.com/fp/d765053526e4f8e40a8e56d8c3d2092c-p_e.jpg,869900,,-77.263306,38.896885,RECENTLY_SOLD,51772623,6600.0,-1,6.0,6.0,USA,USD,acres,True,
125,5,1640937600000,SINGLE_FAMILY,0.37,"635 Frederick St SW, Vienna, VA 22180",https://photos.zillowstatic.com/fp/4b365e1621aa2439f4b3cb170fffeb08-p_e.jpg,2137500,,-77.264244,38.89128,RECENTLY_SOLD,51772276,6971.0,-1,6.0,7.0,USA,USD,acres,True,
126,6,1640851200000,SINGLE_FAMILY,3.02,"10420 Hunters Valley Rd, Vienna, VA 22181",https://photos.zillowstatic.com/fp/d2966e8c13e23c4f115f3b40027341e8-p_e.jpg,2195386,,-77.30702,38.91085,RECENTLY_SOLD,51766904,6195.0,-1,6.0,6.0,USA,USD,sqft,True,
127,7,1640851200000,SINGLE_FAMILY,0.3,"2402 Jackson Pkwy, Vienna, VA 22180",https://photos.zillowstatic.com/fp/b27d7a3c56180e5f8b9207e69ad6371b-p_e.jpg,901000,,-77.23515,38.8936,RECENTLY_SOLD,51776911,2240.0,-1,5.0,3.0,USA,USD,acres,True,
128,8,1640851200000,SINGLE_FAMILY,1.05,"540 Orchard St NW, Vienna, VA 22180",https://photos.zillowstatic.com/fp/4bcf0de1f0fa2673a98bf96fc466b67f-p_e.jpg,2768000,,-77.27912,38.899624,RECENTLY_SOLD,51770510,6650.0,-1,6.0,6.0,USA,USD,sqft,True,
129,9,1640764800000,SINGLE_FAMILY,4.87,"9525 Leesburg Pike, Vienna, VA 22182",https://photos.zillowstatic.com/fp/5c0994b4f125a8cef5d6df1644141cf1-p_e.jpg,3135000,,-77.27719,38.95824,RECENTLY_SOLD,2067644894,13563.0,-1,4.0,2.0,USA,USD,sqft,True,
130,10,1640764800000,SINGLE_FAMILY,0.31363636363636,"2632 Wooster Ct, Vienna, VA 22180","https://maps.googleapis.com/maps/api/staticmap?mobile=false&sensor=true&maptype=satellite&size=575x242&zoom=17&center=38.88428497314453,-77.23880767822266&key=AIzaSyBJsNQO5ZeG-XAbqqWLKwG08fWITSxg33w&signature=EN52q2dJC2VERh0A2qp4pNBJoQs=",735000,,-77.23881,38.884285,RECENTLY_SOLD,51808391,1800.0,-1,4.0,2.5,USA,USD,acres,,
131,11,1640678400000,SINGLE_FAMILY,0.25,"403 Kingsley Rd SW, Vienna, VA 22180",https://photos.zillowstatic.com/fp/94337d146095c204491f112a46198fe8-p_e.jpg,1635000,,-77.2596,38.88775,RECENTLY_SOLD,51803400,4627.0,-1,5.0,5.0,USA,USD,acres,True,
132,12,1640246400000,SINGLE_FAMILY,0.29,"605 Manor Dr NE, Vienna, VA 22180",https://photos.zillowstatic.com/fp/e7afb210077f53754787787d0aba8dcc-p_e.jpg,1175000,,-77.25157,38.920776,RECENTLY_SOLD,51746388,2818.0,-1,5.0,3.0,USA,USD,acres,True,
133,13,1640073600000,SINGLE_FAMILY,0.34,"8325 Carnegie Dr, Vienna, VA 22180",https://photos.zillowstatic.com/fp/ad580f5c2a4aae0e1d948cfac1da7146-p_e.jpg,500000,,-77.23213,38.882812,RECENTLY_SOLD,51808295,1976.0,-1,4.0,2.0,USA,USD,acres,True,
134,14,1640073600000,SINGLE_FAMILY,5227.2,"9806 Fox Rest Ln, Vienna, VA 22181",https://photos.zillowstatic.com/fp/d3c4efd945b013cf98df67c563541d65-p_e.jpg,1125000,,-77.28515,38.885506,RECENTLY_SOLD,51802798,3747.0,-1,4.0,4.0,USA,USD,sqft,True,
135,15,1640073600000,SINGLE_FAMILY,0.97300275482094,"1409 Trap Rd, Vienna, VA 22182","https://maps.googleapis.com/maps/api/staticmap?mobile=false&sensor=true&maptype=satellite&size=575x242&zoom=17&center=38.945457458496094,-77.26399993896484&key=AIzaSyBJsNQO5ZeG-XAbqqWLKwG08fWITSxg33w&signature=I6RWy69-58To2jhy5KJbcJVIZoE=",750000,,-77.264,38.945457,RECENTLY_SOLD,51725472,1193.0,-1,2.0,3.0,USA,USD,acres,,
136,16,1639987200000,SINGLE_FAMILY,0.37,"1017 Ware St SW #3, Vienna, VA 22180",https://photos.zillowstatic.com/fp/07653410b693f8ea20969f1c48558c2f-p_e.jpg,1750485,,,,RECENTLY_SOLD,2070225227,3644.0,-1,5.0,6.0,USA,USD,acres,True,
137,17,1639987200000,SINGLE_FAMILY,0.29,"500 Malcolm Rd NW, Vienna, VA 22180",https://photos.zillowstatic.com/fp/709503c38fc81b1595190b5c09bfea71-p_e.jpg,775000,,-77.27763,38.901817,RECENTLY_SOLD,51770529,2663.0,-1,4.0,5.0,USA,USD,acres,True,
138,18,1639987200000,SINGLE_FAMILY,0.34,"220 Lawyers Rd NW, Vienna, VA 22180",https://photos.zillowstatic.com/fp/744f26ae017d473cd90d6e65166c0f6f-p_e.jpg,950000,,-77.26899,38.90141,RECENTLY_SOLD,51771830,2583.0,-1,4.0,3.0,USA,USD,acres,True,
139,19,1639987200000,SINGLE_FAMILY,0.25,"2923 Hibbard St, Oakton, VA 22124",https://photos.zillowstatic.com/fp/60ad93d57e57c630d45e02d28511a500-p_e.jpg,620000,,-77.29348,38.87946,RECENTLY_SOLD,51799149,1066.0,-1,2.0,1.0,USA,USD,acres,True,
140,20,1639987200000,SINGLE_FAMILY,0.36999540863177,"1017 Ware St SW, Vienna, VA 22180",https://photos.zillowstatic.com/fp/abbe3e5cc9687b473567e6ebecc933cd-p_e.jpg,1750485,,-77.261635,38.883793,RECENTLY_SOLD,333569343,5032.0,-1,5.0,6.0,USA,USD,acres,True,
141,21,1639987200000,SINGLE_FAMILY,0.37008723599633,"1012 Mountfort Ct SW, Vienna, VA 22180","https://maps.googleapis.com/maps/api/staticmap?mobile=false&sensor=true&maptype=satellite&size=575x242&zoom=17&center=38.885868072509766,-77.26162719726562&key=AIzaSyBJsNQO5ZeG-XAbqqWLKwG08fWITSxg33w&signature=l6D0zxkF-KaW_j3prIzcvO6l9Z0=",810000,,-77.26163,38.885868,RECENTLY_SOLD,51804226,2004.0,-1,,4.0,USA,USD,acres,,
142,22,1639728000000,SINGLE_FAMILY,2.2,"2209 Hunter Mill Rd, Vienna, VA 22181",https://photos.zillowstatic.com/fp/fad01ee9ef30232bd640bef4dc7f9cc7-p_e.jpg,775000,,-77.30318,38.917603,RECENTLY_SOLD,51744194,1560.0,-1,2.0,2.0,USA,USD,sqft,True,
143,23,1639728000000,SINGLE_FAMILY,2.1,"10150 Browns Mill Rd, Vienna, VA 22182",https://photos.zillowstatic.com/fp/f92050fb21158ac486ac55d7ebd9614c-p_e.jpg,2289580,,,,RECENTLY_SOLD,2067022280,7965.0,-1,6.0,6.0,USA,USD,sqft,True,
144,24,1639728000000,SINGLE_FAMILY,0.42,"9468 Deramus Farm Ct, Vienna, VA 22182",https://photos.zillowstatic.com/fp/c5740e1bd931215d6b86444efdf58398-p_e.jpg,1376100,,-77.27305,38.954754,RECENTLY_SOLD,51725403,3855.0,-1,7.0,5.0,USA,USD,acres,True,
145,25,1639728000000,SINGLE_FAMILY,5227.2,"9854 Palace Green Way, Vienna, VA 22181",https://photos.zillowstatic.com/fp/e2a0599a06679506e6280aacdb8dc109-p_e.jpg,1260000,,-77.28436,38.88271,RECENTLY_SOLD,72489109,5688.0,-1,5.0,5.0,USA,USD,sqft,True,
146,26,1639728000000,SINGLE_FAMILY,0.31,"1004 Country Club Dr NE, Vienna, VA 22180",https://photos.zillowstatic.com/fp/0a4c38f1174539b389e291a5edaa7749-p_e.jpg,1115512,,-77.253784,38.919804,RECENTLY_SOLD,51746445,2116.0,-1,4.0,3.0,USA,USD,acres,True,
147,27,1639728000000,SINGLE_FAMILY,0.50505050505051,"620 Hine St SE, Vienna, VA 22180","https://maps.googleapis.com/maps/api/staticmap?mobile=false&sensor=true&maptype=satellite&size=575x242&zoom=17&center=38.90821838378906,-77.25273895263672&key=AIzaSyBJsNQO5ZeG-XAbqqWLKwG08fWITSxg33w&signature=YtVd53yR5vi6qhOxgVADs2xSxck=",1000000,,-77.25274,38.90822,RECENTLY_SOLD,51769732,1404.0,-1,,2.5,USA,USD,acres,,
148,28,1639728000000,SINGLE_FAMILY,0.25,"1915 Grand Ct, Vienna, VA 22182",https://photos.zillowstatic.com/fp/833903ac5674ffb3c8938915e5457911-p_e.jpg,1090100,,-77.27138,38.918274,RECENTLY_SOLD,51745555,3294.0,-1,4.0,4.0,USA,USD,acres,True,
149,29,1639641600000,SINGLE_FAMILY,0.38,"2115 Freda Dr, Vienna, VA 22181",https://photos.zillowstatic.com/fp/24b1c5af7d2807dc65011bd461f27298-p_e.jpg,980000,,-77.27947,38.911774,RECENTLY_SOLD,51769083,2442.0,-1,5.0,3.0,USA,USD,acres,True,
150,30,1639641600000,SINGLE_FAMILY,0.43,"2434 Luckett Ave, Vienna, VA 22180",https://photos.zillowstatic.com/fp/8e5c9a0d9bad1c79b7b26609ddb3805c-p_e.jpg,1100000,,-77.24169,38.8917,RECENTLY_SOLD,51776857,3352.0,-1,4.0,4.0,USA,USD,acres,True,
151,31,1639555200000,SINGLE_FAMILY,10018.8,"230 Pleasant St SW, Vienna, VA 22180",https://photos.zillowstatic.com/fp/bf0bb94dd0f2596a62f5ca79a3853f42-p_e.jpg,1415000,,-77.26711,38.896942,RECENTLY_SOLD,68906730,4150.0,-1,4.0,5.0,USA,USD,sqft,True,
152,32,1639555200000,SINGLE_FAMILY,1.18,"1416 Carrington Ln, Vienna, VA 22182",https://photos.zillowstatic.com/fp/c498cf43be327fd000df7c0ed6bb0370-p_e.jpg,1200000,,-77.27572,38.950485,RECENTLY_SOLD,51724917,5548.0,-1,5.0,5.0,USA,USD,sqft,True,
153,33,1639555200000,SINGLE_FAMILY,0.95,"2811 Cedar Ln, Vienna, VA 22180",https://photos.zillowstatic.com/fp/3f94910fc48cc56e2b67ac65cf6c3418-p_e.jpg,703000,,-77.24609,38.87715,RECENTLY_SOLD,51807845,1712.0,-1,3.0,3.0,USA,USD,acres,True,
154,34,1639555200000,SINGLE_FAMILY,0.39,"9475 Deramus Farm Ct, Vienna, VA 22182",https://photos.zillowstatic.com/fp/834d37cd9755ac4ee09947fca87bde21-p_e.jpg,1615000,,-77.27404,38.953568,RECENTLY_SOLD,51725417,5911.0,-1,5.0,5.0,USA,USD,acres,True,
155,35,1639555200000,SINGLE_FAMILY,0.76,"10680 Water Falls Ln, Vienna, VA 22182",https://photos.zillowstatic.com/fp/ea3e0df3062cd6150fd2b6d35faa2099-p_e.jpg,1225000,,-77.313515,38.974,RECENTLY_SOLD,60379008,5218.0,-1,4.0,5.0,USA,USD,acres,True,
156,36,1639468800000,SINGLE_FAMILY,1.06,"10728 Hunters Pl, Vienna, VA 22181",https://photos.zillowstatic.com/fp/8f2a32d681debef2f96d4a4905cf782d-p_e.jpg,1300000,,-77.31848,38.92699,RECENTLY_SOLD,51744157,4714.0,-1,4.0,4.0,USA,USD,sqft,True,
157,37,1639382400000,SINGLE_FAMILY,0.25,"2335 Riviera Dr, Vienna, VA 22181",https://photos.zillowstatic.com/fp/37e63f226aff7cda23aaf538f47788b5-p_e.jpg,1010000,,-77.28649,38.902405,RECENTLY_SOLD,51771121,2776.0,-1,4.0,4.0,USA,USD,acres,True,
158,38,1639382400000,SINGLE_FAMILY,0.47378328741965,"8911 Higdon Dr, Vienna, VA 22182","https://maps.googleapis.com/maps/api/staticmap?mobile=false&sensor=true&maptype=satellite&size=575x242&zoom=17&center=38.92649841308594,-77.25528717041016&key=AIzaSyBJsNQO5ZeG-XAbqqWLKwG08fWITSxg33w&signature=j4U5lDGCO9zM9aRKD89_mh409RM=",1500000,,-77.25529,38.9265,RECENTLY_SOLD,51746358,1087.0,-1,,2.0,USA,USD,acres,,
159,39,1639123200000,SINGLE_FAMILY,0.45,"348 Orchard St NW, Vienna, VA 22180",https://photos.zillowstatic.com/fp/3cc02651b37e57b7e49b5008944464fc-p_e.jpg,900000,,-77.27339,38.900204,RECENTLY_SOLD,51770851,1667.0,-1,3.0,2.0,USA,USD,acres,True,
160,0,1639123200000,SINGLE_FAMILY,0.3,"2403 Holt St, Vienna, VA 22180",https://photos.zillowstatic.com/fp/0c45c86dc773653697f5491b84f56d7f-p_e.jpg,820000,,-77.22954,38.89273,RECENTLY_SOLD,51777085,2229.0,-1,5.0,3.0,USA,USD,acres,True,
161,1,1639123200000,SINGLE_FAMILY,0.27045454545455,"9510 Francis Young Ln, Vienna, VA 22182","https://maps.googleapis.com/maps/api/staticmap?mobile=false&sensor=true&maptype=satellite&size=575x242&zoom=17&center=38.92369079589844,-77.27350616455078&key=AIzaSyBJsNQO5ZeG-XAbqqWLKwG08fWITSxg33w&signature=40dhge9t99GxTG8SKkDK1Cynp68=",1555000,,-77.273506,38.92369,RECENTLY_SOLD,89098186,3684.0,-1,4.0,4.5,USA,USD,acres,,
162,2,1639123200000,SINGLE_FAMILY,0.4,"505 Delano Dr SE, Vienna, VA 22180",https://photos.zillowstatic.com/fp/71cc44292ef716c01d01afa6a53686eb-p_e.jpg,1250000,,-77.252495,38.903046,RECENTLY_SOLD,51769682,3425.0,-1,5.0,5.0,USA,USD,acres,True,
163,3,1639123200000,SINGLE_FAMILY,0.35,"305 Talahi Rd SE, Vienna, VA 22180",https://photos.zillowstatic.com/fp/0ab596ace159ef0eb7d44f50220a7056-p_e.jpg,1550000,,-77.25318,38.89986,RECENTLY_SOLD,59787129,4409.0,-1,5.0,5.0,USA,USD,acres,True,
164,4,1639123200000,SINGLE_FAMILY,0.29,"9605 Whitecedar Ct, Vienna, VA 22181",https://photos.zillowstatic.com/fp/98cd01383ad40b9b061814b4c28389f1-p_e.jpg,1010000,,-77.27833,38.88874,RECENTLY_SOLD,51801792,3706.0,-1,4.0,4.0,USA,USD,acres,True,
165,5,1639123200000,SINGLE_FAMILY,0.4,"1606 Montmorency Dr, Vienna, VA 22182",https://photos.zillowstatic.com/fp/7033c43933c1496a5a9c6d7de66ba33b-p_e.jpg,900000,,-77.25506,38.93148,RECENTLY_SOLD,51745257,3264.0,-1,4.0,4.0,USA,USD,acres,True,
166,6,1639036800000,SINGLE_FAMILY,0.25,"310 Center St N, Vienna, VA 22180",https://photos.zillowstatic.com/fp/e6f939f3a533e4aa6d382535e1e8619c-p_e.jpg,830000,,-77.26871,38.90399,RECENTLY_SOLD,51769486,2293.0,-1,3.0,3.0,USA,USD,acres,True,
167,7,1639036800000,SINGLE_FAMILY,0.27,"9510 Francis Young Ln, Vienna, VA 22182",https://photos.zillowstatic.com/fp/2a18754d5e5c6fde397959cc531b2341-p_e.jpg,1555000,,-77.273506,38.92369,RECENTLY_SOLD,89096323,4715.0,-1,4.0,5.0,USA,USD,acres,True,
168,8,1638950400000,SINGLE_FAMILY,0.41,"9110 Streamview Ln, Vienna, VA 22182",https://photos.zillowstatic.com/fp/f402af03a2bb2fd19abbcfab17ab7ce7-p_e.jpg,1010000,,-77.2601,38.93812,RECENTLY_SOLD,51745033,3425.0,-1,4.0,3.0,USA,USD,acres,True,
170,10,1638950400000,SINGLE_FAMILY,1.05,"1612 Chathams Ford Pl, Vienna, VA 22182",https://photos.zillowstatic.com/fp/944dd0b2bd55a3d02d0e4f5d8ead1314-p_e.jpg,1681700,,-77.27836,38.93945,RECENTLY_SOLD,51744871,6922.0,-1,5.0,6.0,USA,USD,sqft,True,
171,11,1638950400000,SINGLE_FAMILY,0.39359504132231,"9415 Shouse Dr, Vienna, VA 22182","https://maps.googleapis.com/maps/api/staticmap?mobile=false&sensor=true&maptype=satellite&size=575x242&zoom=17&center=38.944461822509766,-77.27224731445312&key=AIzaSyBJsNQO5ZeG-XAbqqWLKwG08fWITSxg33w&signature=YJXZdUM0-2v4d-fsbjHk1DBSmlc=",1000000,,-77.27225,38.94446,RECENTLY_SOLD,51724982,1868.0,-1,4.0,4.0,USA,USD,acres,,
172,12,1638864000000,SINGLE_FAMILY,0.46,"9806 Bridleridge Ct, Vienna, VA 22181",https://photos.zillowstatic.com/fp/aa3190c2bd442be90c182e3e39ed398e-p_e.jpg,1360000,,-77.28539,38.916466,RECENTLY_SOLD,51769184,5479.0,-1,4.0,5.0,USA,USD,acres,True,
173,13,1638777600000,SINGLE_FAMILY,0.5,"1704 Fox Run Ct, Vienna, VA 22182",https://photos.zillowstatic.com/fp/aaabbc846ff8deb7a25d9c6bd6bac5e3-p_e.jpg,880000,,-77.30202,38.94213,RECENTLY_SOLD,51743321,2900.0,-1,5.0,3.0,USA,USD,acres,True,
174,14,1638777600000,SINGLE_FAMILY,10454.4,"1746 Pine Valley Dr, Vienna, VA 22182","https://maps.googleapis.com/maps/api/staticmap?mobile=false&sensor=true&maptype=satellite&size=575x242&zoom=17&center=38.92055130004883,-77.24664306640625&key=AIzaSyBJsNQO5ZeG-XAbqqWLKwG08fWITSxg33w&signature=9-GutlEXYhG3UNyor_drmf7WQ6A=",825000,,-77.24664,38.92055,RECENTLY_SOLD,51748539,1436.0,-1,5.0,3.0,USA,USD,sqft,,
175,15,1638777600000,SINGLE_FAMILY,6098.4,"2809 Morada Ct, Vienna, VA 22180",https://photos.zillowstatic.com/fp/5fcd69db02a79db5bd63fd6645854aa9-p_e.jpg,1110000,,-77.24372,38.87826,RECENTLY_SOLD,60379357,3472.0,-1,5.0,6.0,USA,USD,sqft,True,
176,16,1638518400000,SINGLE_FAMILY,0.5,"9810 Sunrise Rd, Vienna, VA 22181",https://photos.zillowstatic.com/fp/cb3045e334ca317e522b2fa11797ccb2-p_e.jpg,2282688,,-77.28405,38.8951,RECENTLY_SOLD,51770719,8024.0,-1,6.0,8.0,USA,USD,acres,True,
177,17,1638518400000,SINGLE_FAMILY,0.54,"9813 Fosbak Dr, Vienna, VA 22182",https://photos.zillowstatic.com/fp/715bab5516b1c718d8db7dbeee3b7f30-p_e.jpg,1199900,,-77.28913,38.928932,RECENTLY_SOLD,51745843,4141.0,-1,5.0,5.0,USA,USD,acres,True,
178,18,1638432000000,SINGLE_FAMILY,0.27,"202 Owaissa Ct SE, Vienna, VA 22180",https://photos.zillowstatic.com/fp/8ccd3dfa5f6c17c5855730fb1941fd52-p_e.jpg,1050000,,-77.24969,38.89551,RECENTLY_SOLD,51773175,3168.0,-1,4.0,5.0,USA,USD,acres,True,
179,19,1638432000000,SINGLE_FAMILY,0.34713039485767,"9463 Shouse Dr, Vienna, VA 22182","https://maps.googleapis.com/maps/api/staticmap?mobile=false&sensor=true&maptype=satellite&size=575x242&zoom=17&center=38.949466705322266,-77.26995086669922&key=AIzaSyBJsNQO5ZeG-XAbqqWLKwG08fWITSxg33w&signature=c_twtfj0IxqpHJ5YJzE5nyt2ZFE=",1000000,,-77.26995,38.949467,RECENTLY_SOLD,51725635,2422.0,-1,5.0,3.0,USA,USD,acres,,
180,20,1638345600000,SINGLE_FAMILY,0.25,"2104 Statute Ln, Vienna, VA 22181",https://photos.zillowstatic.com/fp/4643a0cbd51f26a391aa77944d6fd2cc-p_e.jpg,800000,,-77.277405,38.91125,RECENTLY_SOLD,51768682,2021.0,-1,4.0,3.0,USA,USD,acres,True,
181,21,1638345600000,SINGLE_FAMILY,0.28,"104 Harmony Dr SE, Vienna, VA 22180",https://photos.zillowstatic.com/fp/8bc0471d37e8ffda1dd8081b5dd3ec5d-p_e.jpg,738050,,-77.25259,38.893963,RECENTLY_SOLD,51772332,1352.0,-1,3.0,1.0,USA,USD,acres,True,
182,22,1638345600000,SINGLE_FAMILY,0.34442148760331,"1911 Prelude Dr, Vienna, VA 22182",https://photos.zillowstatic.com/fp/38bf6d216e1b638d06eb0eeaa7ccb028-p_e.jpg,1824990,,-77.28048,38.918533,RECENTLY_SOLD,51745787,5406.0,-1,5.0,6.0,USA,USD,acres,True,True
183,23,1638259200000,SINGLE_FAMILY,0.59,"2533 Oak Valley Dr, Vienna, VA 22181",https://photos.zillowstatic.com/fp/acbcdea4f1d3af67757ede8f5385746b-p_e.jpg,840000,,-77.294556,38.90253,RECENTLY_SOLD,51767987,2280.0,-1,4.0,4.0,USA,USD,acres,True,
184,24,1638259200000,SINGLE_FAMILY,0.5,"607 Park St SE, Vienna, VA 22180",https://photos.zillowstatic.com/fp/2bcd3108e3d4d58ff6de101de579b809-p_e.jpg,850000,,-77.25678,38.898205,RECENTLY_SOLD,51772859,1040.0,-1,3.0,2.0,USA,USD,acres,True,
185,25,1638259200000,SINGLE_FAMILY,0.5,"10312 Tamarack Dr, Vienna, VA 22182",https://photos.zillowstatic.com/fp/e7111cb2415af8af711e17b87339e6e8-p_e.jpg,865000,,-77.30378,38.936638,RECENTLY_SOLD,51743375,3400.0,-1,5.0,3.0,USA,USD,acres,True,
186,26,1638259200000,SINGLE_FAMILY,0.54327364554637,"10106 Mill Wheel Ln, Vienna, VA 22182","https://maps.googleapis.com/maps/api/staticmap?mobile=false&sensor=true&maptype=satellite&size=575x242&zoom=17&center=38.96879577636719,-77.29745483398438&key=AIzaSyBJsNQO5ZeG-XAbqqWLKwG08fWITSxg33w&signature=-NF8d7IligII8K264d4KYNRoXts=",900000,,-77.297455,38.968796,RECENTLY_SOLD,51723326,2478.0,-1,5.0,3.5,USA,USD,acres,,
187,27,1638172800000,SINGLE_FAMILY,0.39,"2601 E Meredith Dr, Vienna, VA 22181",https://photos.zillowstatic.com/fp/c11c2997c91a05e66c1ef9bf0d7f5d90-p_e.jpg,1030000,,-77.29212,38.894215,RECENTLY_SOLD,51767854,3230.0,-1,5.0,4.0,USA,USD,acres,True,
188,28,1638172800000,SINGLE_FAMILY,0.63,"103 Kingsley Rd SE, Vienna, VA 22180","https://maps.googleapis.com/maps/api/staticmap?mobile=false&sensor=true&maptype=satellite&size=575x242&zoom=17&center=38.88929748535156,-77.25159454345703&key=AIzaSyBJsNQO5ZeG-XAbqqWLKwG08fWITSxg33w&signature=cevxzEm5JUvWORBh8gXKLTSBoc4=",2400000,,-77.251595,38.889297,RECENTLY_SOLD,51772813,964.0,-1,3.0,2.0,USA,USD,acres,,
189,29,1638172800000,SINGLE_FAMILY,0.28698347107438,"910 Fairway Dr NE, Vienna, VA 22180",https://photos.zillowstatic.com/fp/c72e932b9d4161cbf98d8ec60633329d-p_e.jpg,4000,,-77.255325,38.91581,RECENTLY_SOLD,51769977,4000.0,-1,4.0,3.0,USA,USD,acres,True,
190,30,1637740800000,SINGLE_FAMILY,0.46,"2525 Rocky Branch Rd, Vienna, VA 22181",https://photos.zillowstatic.com/fp/5b0354929beccaab7ff87990e11b5c95-p_e.jpg,1055000,,-77.29928,38.897045,RECENTLY_SOLD,51767961,3495.0,-1,5.0,4.0,USA,USD,acres,True,
191,31,1637740800000,SINGLE_FAMILY,0.28,"8302 Elm Grove Ct, Vienna, VA 22182",https://photos.zillowstatic.com/fp/511d4fcf51767a75483702d2a2f46c32-p_e.jpg,1380000,,-77.2323,38.908573,RECENTLY_SOLD,52840114,3839.0,-1,6.0,5.0,USA,USD,acres,True,
192,32,1637740800000,SINGLE_FAMILY,10454.4,"517 Orrin St SE, Vienna, VA 22180",https://photos.zillowstatic.com/fp/3f3592aaa51f91f0a1a83d4b3b9b7128-p_e.jpg,1896394,,-77.24973,38.9048,RECENTLY_SOLD,51769711,5349.0,-1,5.0,6.0,USA,USD,sqft,True,
193,33,1637740800000,SINGLE_FAMILY,0.5,"532 Orchard St NW, Vienna, VA 22180","https://maps.googleapis.com/maps/api/staticmap?mobile=false&sensor=true&maptype=satellite&size=575x242&zoom=17&center=38.899906158447266,-77.27872467041016&key=AIzaSyBJsNQO5ZeG-XAbqqWLKwG08fWITSxg33w&signature=CdXvENhymgsDTBs6SrhOCCDKSQ8=",650000,,-77.278725,38.899906,RECENTLY_SOLD,51770511,1326.0,-1,3.0,2.0,USA,USD,acres,,
194,34,1637654400000,SINGLE_FAMILY,0.57,"1607 Lozano Dr, Vienna, VA 22182",https://photos.zillowstatic.com/fp/6a79998e6209e4cbcb8d1f97bfc1252a-p_e.jpg,870000,,-77.28417,38.941242,RECENTLY_SOLD,51744661,3600.0,-1,5.0,3.0,USA,USD,acres,True,
195,35,1637654400000,SINGLE_FAMILY,9147.6,"8506 Ashgrove Plantation Cir, Vienna, VA 22182",https://photos.zillowstatic.com/fp/68618f6c9e1bae6976b319964aaf35a5-p_e.jpg,4200,,-77.23902,38.914467,RECENTLY_SOLD,51774107,3450.0,-1,3.0,4.0,USA,USD,sqft,True,
196,36,1637654400000,SINGLE_FAMILY,0.33,"407 Tapawingo Rd SW, Vienna, VA 22180",https://photos.zillowstatic.com/fp/52bdb9784600ed9a9da56ac00921b5f3-p_e.jpg,2150000,,-77.26222,38.89007,RECENTLY_SOLD,51772061,6580.0,-1,6.0,6.0,USA,USD,acres,True,True
197,37,1637568000000,SINGLE_FAMILY,,"8846 Ashgrove House Ln APT 202, Vienna, VA 22182","https://maps.googleapis.com/maps/api/staticmap?mobile=false&sensor=true&maptype=satellite&size=575x242&zoom=17&center=38.931114196777344,-77.24842834472656&key=AIzaSyBJsNQO5ZeG-XAbqqWLKwG08fWITSxg33w&signature=EtKBY5YjVchaFWT_OZZDF-G0jig=",545000,,-77.24843,38.931114,RECENTLY_SOLD,51747520,1580.0,-1,2.0,3.0,USA,USD,,,
198,38,1637568000000,SINGLE_FAMILY,0.25,"103 Patrick St SW, Vienna, VA 22180",https://photos.zillowstatic.com/fp/3803459155987fdab3558556f95aefb6-p_e.jpg,901500,,-77.247765,38.885868,RECENTLY_SOLD,51807985,2865.0,-1,4.0,3.0,USA,USD,acres,True,
199,39,1637308800000,SINGLE_FAMILY,0.28,"100 James Dr SE, Vienna, VA 22180",https://photos.zillowstatic.com/fp/74a4d13ad2a12f6d6c3dd87122888b02-p_e.jpg,760000,,-77.24988,38.887295,RECENTLY_SOLD,51803894,2340.0,-1,4.0,3.0,USA,USD,acres,True,
200,0,1637308800000,SINGLE_FAMILY,10500.0,"8215 Cottage St, Vienna, VA 22180","https://maps.googleapis.com/maps/api/staticmap?mobile=false&sensor=true&maptype=satellite&size=575x242&zoom=17&center=38.88669967651367,-77.22941589355469&key=AIzaSyBJsNQO5ZeG-XAbqqWLKwG08fWITSxg33w&signature=3PnNqSTbUlT_nILBF42ftGuJfR8=",670000,,-77.229416,38.8867,RECENTLY_SOLD,51808099,1828.0,-1,4.0,2.5,USA,USD,sqft,,
201,1,1637308800000,SINGLE_FAMILY,10454.4,"8312 Cottage St, Vienna, VA 22180",https://photos.zillowstatic.com/fp/7072e421d3c24257e40ef8bc4c4ec69b-p_e.jpg,786500,,-77.23284,38.886005,RECENTLY_SOLD,51808183,2041.0,-1,4.0,3.0,USA,USD,sqft,True,
202,2,1637308800000,SINGLE_FAMILY,8276.4,"9809 Oleander Ave, Vienna, VA 22181",https://photos.zillowstatic.com/fp/751f3face5ed072d9db47c245b9cb0d5-p_e.jpg,799900,,-77.2862,38.881466,RECENTLY_SOLD,51801748,1908.0,-1,4.0,3.0,USA,USD,sqft,True,
203,3,1637308800000,SINGLE_FAMILY,9583.2,"228 Manvell Rd SE, Vienna, VA 22180",https://photos.zillowstatic.com/fp/f0e8cb608170871e091dea0cab942886-p_e.jpg,680000,,-77.25568,38.899986,RECENTLY_SOLD,51771881,1456.0,-1,3.0,2.0,USA,USD,sqft,True,
204,4,1637222400000,SINGLE_FAMILY,0.28,"130 Woodview Cir SW, Vienna, VA 22180",https://photos.zillowstatic.com/fp/cb7570ed584f58d365faf4346a6f79ce-p_e.jpg,1848000,,-77.25497,38.89073,RECENTLY_SOLD,51772409,5737.0,-1,5.0,7.0,USA,USD,acres,True,
205,5,1637136000000,SINGLE_FAMILY,0.31,"428 Blair Rd NW, Vienna, VA 22180",https://photos.zillowstatic.com/fp/9a6a2db14d9a8a13b9c71247e6461bfc-p_e.jpg,950000,,-77.28185,38.903824,RECENTLY_SOLD,51768543,2325.0,-1,5.0,3.0,USA,USD,acres,True,
206,6,1637136000000,SINGLE_FAMILY,0.98999081726354,"10203 Old Hunt Rd, Vienna, VA 22181",https://photos.zillowstatic.com/fp/d120cd14f37c1cc5ffc6c6752f826163-p_e.jpg,925000,,-77.29681,38.91321,RECENTLY_SOLD,51767112,2938.0,-1,5.0,4.0,USA,USD,acres,True,
207,7,1637049600000,SINGLE_FAMILY,0.33,"8953 Miller Ln, Vienna, VA 22182",https://photos.zillowstatic.com/fp/4dfdfc7159b6d8231a8be54717cc96a6-p_e.jpg,985000,,-77.256676,38.920097,RECENTLY_SOLD,51746924,2335.0,-1,4.0,3.0,USA,USD,acres,True,
208,8,1637049600000,SINGLE_FAMILY,0.45,"9805 Meadow Knoll Ct, Vienna, VA 22181",https://photos.zillowstatic.com/fp/e5cba57725a6348fa9a9c92ad4614332-p_e.jpg,815000,,-77.283,38.91435,RECENTLY_SOLD,51769169,2445.0,-1,4.0,3.0,USA,USD,acres,True,
209,9,1636963200000,SINGLE_FAMILY,0.46085858585859,"1954 Old Gallows Rd, Vienna, VA 22182","https://maps.googleapis.com/maps/api/staticmap?mobile=false&sensor=true&maptype=satellite&size=575x242&zoom=17&center=38.91061782836914,-77.22313690185547&key=AIzaSyBJsNQO5ZeG-XAbqqWLKwG08fWITSxg33w&signature=pX58Gt9S0N5PdX1Pv4D6-28xSt4=",2550000,,-77.22314,38.910618,RECENTLY_SOLD,51774686,1609.0,-1,,2.0,USA,USD,acres,,
210,10,1636963200000,SINGLE_FAMILY,0.45,"2302 Tanglevale Dr, Vienna, VA 22181",https://photos.zillowstatic.com/fp/5ed559f09206b3f6f75a16f2dc168f25-p_e.jpg,973800,,-77.287415,38.90291,RECENTLY_SOLD,51771104,2267.0,-1,5.0,3.0,USA,USD,acres,True,
211,11,1636963200000,SINGLE_FAMILY,0.31,"404 Macarthur Ave NE, Vienna, VA 22180",https://photos.zillowstatic.com/fp/00463d1d2d9e6ca3ce93c75cdf07afd5-p_e.jpg,925000,,-77.268524,38.91247,RECENTLY_SOLD,51769537,2464.0,-1,3.0,3.0,USA,USD,acres,True,
212,12,1636963200000,SINGLE_FAMILY,0.26,"2630 Depaul Dr, Vienna, VA 22180",https://photos.zillowstatic.com/fp/4e0336c732ce4d5ccac2504cacd9834e-p_e.jpg,1369814,,-77.24285,38.88166,RECENTLY_SOLD,51808565,3543.0,-1,4.0,5.0,USA,USD,acres,True,
213,13,1636876800000,SINGLE_FAMILY,0.35,"1650 Montmorency Dr, Vienna, VA 22182",https://photos.zillowstatic.com/fp/d48501007b1ae632a522b5c2a8449d3e-p_e.jpg,1359000,,-77.261925,38.93006,RECENTLY_SOLD,51746977,3747.0,-1,4.0,4.0,USA,USD,acres,True,
214,14,1636704000000,SINGLE_FAMILY,0.38,"2847 Edgelea Rd, Vienna, VA 22181",https://photos.zillowstatic.com/fp/69f2ccc4bd58e99d9f5a60d239dcbb42-p_e.jpg,670000,,-77.28853,38.88051,RECENTLY_SOLD,51801642,1400.0,-1,0.0,0.0,USA,USD,acres,True,
215,15,1636704000000,SINGLE_FAMILY,8276.4,"8303 Forestree Ct, Vienna, VA 22182",https://photos.zillowstatic.com/fp/4da905d2209f5f3b84f50b5083a3694b-p_e.jpg,895000,,-77.23361,38.90363,RECENTLY_SOLD,51773990,3084.0,-1,4.0,4.0,USA,USD,sqft,True,
216,16,1636704000000,SINGLE_FAMILY,10454.4,"8716 Old Courthouse Rd, Vienna, VA 22182",https://photos.zillowstatic.com/fp/11f3b730ac7234116fcf5eaadc3265a1-p_e.jpg,815000,,-77.24775,38.920235,RECENTLY_SOLD,51748533,2809.0,-1,5.0,3.0,USA,USD,sqft,True,
217,17,1636704000000,SINGLE_FAMILY,0.68,"9813 Wintercress Ct, Vienna, VA 22182",https://photos.zillowstatic.com/fp/331669d1db14f385823c0cea681b28c2-p_e.jpg,1110000,,-77.29109,38.94962,RECENTLY_SOLD,51725258,3620.0,-1,5.0,4.0,USA,USD,acres,True,
218,18,1636704000000,SINGLE_FAMILY,0.28,"1208 Drake St SW, Vienna, VA 22180",https://photos.zillowstatic.com/fp/93035917dcc5d6f650d82825582bc97e-p_e.jpg,800000,,-77.25488,38.881596,RECENTLY_SOLD,51803683,1732.0,-1,3.0,2.0,USA,USD,acres,True,
219,19,1636704000000,SINGLE_FAMILY,1742.0,"2004 Meadow Springs Dr, Vienna, VA 22182",https://photos.zillowstatic.com/fp/4118783513899139e933b9097341adea-p_e.jpg,3000,,-77.22549,38.90843,RECENTLY_SOLD,51776241,2040.0,-1,3.0,2.5,USA,USD,sqft,True,
220,20,1636531200000,SINGLE_FAMILY,0.63,"10194 Hillington Ct, Vienna, VA 22182",https://photos.zillowstatic.com/fp/b5c2f7d52f9e540f56cab74a9a413872-p_e.jpg,1258000,,-77.296265,38.92622,RECENTLY_SOLD,51744321,3530.0,-1,5.0,4.0,USA,USD,acres,True,
221,21,1636531200000,SINGLE_FAMILY,0.38,"2557 Oak Valley Dr, Vienna, VA 22181",https://photos.zillowstatic.com/fp/fd2d5954855e677e207995bfa57dade2-p_e.jpg,835500,,-77.294334,38.898476,RECENTLY_SOLD,51767742,1679.0,-1,4.0,3.0,USA,USD,acres,True,
222,22,1636531200000,SINGLE_FAMILY,1.03,"2205 Lydia Pl, Vienna, VA 22181",https://photos.zillowstatic.com/fp/bf9897e28b2f5d2258bfd7a643bf0d22-p_e.jpg,1145000,,-77.29512,38.913128,RECENTLY_SOLD,51767115,3591.0,-1,5.0,4.0,USA,USD,sqft,True,
223,23,1636444800000,SINGLE_FAMILY,0.30736914600551,"2136 Woodford Rd, Vienna, VA 22182","https://maps.googleapis.com/maps/api/staticmap?mobile=false&sensor=true&maptype=satellite&size=575x242&zoom=17&center=38.90346145629883,-77.23973083496094&key=AIzaSyBJsNQO5ZeG-XAbqqWLKwG08fWITSxg33w&signature=R7xh4F4gK5RvDe6YMDwE73gdhnc=",710000,,-77.23973,38.90346,RECENTLY_SOLD,51773760,1682.0,-1,3.0,3.0,USA,USD,acres,,
224,24,1636358400000,SINGLE_FAMILY,0.32,"2008 Cantata Ct, Vienna, VA 22182",https://photos.zillowstatic.com/fp/59037bacf8119b13fe49c0dec3f4b7f3-p_e.jpg,928000,,-77.27923,38.915386,RECENTLY_SOLD,51769060,1775.0,-1,4.0,4.0,USA,USD,acres,True,
225,25,1636095600000,SINGLE_FAMILY,0.36,"9211 Bois Ave, Vienna, VA 22182",https://photos.zillowstatic.com/fp/39cb24ea4e9f0f1e0a9660b5fed48593-p_e.jpg,885000,,-77.26506,38.931248,RECENTLY_SOLD,51745160,3290.0,-1,5.0,3.0,USA,USD,acres,True,
226,26,1636095600000,SINGLE_FAMILY,1.92,"10716 Meadowood Dr, Vienna, VA 22181",https://photos.zillowstatic.com/fp/bc2e7adbca8e6780ecdc1bc1560e8398-p_e.jpg,1050000,,-77.31708,38.928658,RECENTLY_SOLD,51743913,4620.0,-1,4.0,5.0,USA,USD,sqft,True,
227,27,1636095600000,SINGLE_FAMILY,0.29,"9544 Whitecedar Ct, Vienna, VA 22181",https://photos.zillowstatic.com/fp/a5917240f4c2f629dab312000abd8182-p_e.jpg,935000,,-77.27728,38.889484,RECENTLY_SOLD,51771209,2418.0,-1,4.0,3.0,USA,USD,acres,True,
228,28,1636009200000,SINGLE_FAMILY,0.29,"225 Church St NE, Vienna, VA 22180",https://photos.zillowstatic.com/fp/7766b85f7ff759f50614dcb7ad7fdfef-p_e.jpg,1786805,,-77.26323,38.904903,RECENTLY_SOLD,51770225,5074.0,-1,5.0,6.0,USA,USD,acres,True,
229,29,1636009200000,SINGLE_FAMILY,0.31,"908 Shady Dr SE, Vienna, VA 22180",https://photos.zillowstatic.com/fp/f3c6a18c2733b7c64cd937c639ef95ba-p_e.jpg,870000,,-77.24478,38.898064,RECENTLY_SOLD,51777273,2208.0,-1,3.0,3.0,USA,USD,acres,True,
230,30,1636009200000,SINGLE_FAMILY,0.36,"412 Onondio Cir SE, Vienna, VA 22180",https://photos.zillowstatic.com/fp/fb4b84b963e8164782cd227e07de10b4-p_e.jpg,976000,,-77.24262,38.89714,RECENTLY_SOLD,51777311,2342.0,-1,5.0,3.0,USA,USD,acres,True,
231,31,1635922800000,SINGLE_FAMILY,0.36,"8728 Old Courthouse Rd, Vienna, VA 22182",https://photos.zillowstatic.com/fp/09fe1089d1eedd9b0d515f57a585133d-p_e.jpg,699000,,-77.24934,38.92088,RECENTLY_SOLD,51748527,2240.0,-1,5.0,3.0,USA,USD,acres,True,
232,32,1635922800000,SINGLE_FAMILY,0.28,"2624 Depaul Dr, Vienna, VA 22180",https://photos.zillowstatic.com/fp/3feb02b924b15eed293484978a5764f8-p_e.jpg,790000,,-77.24326,38.882618,RECENTLY_SOLD,51808485,2602.0,-1,3.0,3.0,USA,USD,acres,True,
233,33,1635836400000,SINGLE_FAMILY,0.27,"8104 Maya Ct, Vienna, VA 22182",https://photos.zillowstatic.com/fp/76a6c40680f0a022d435df00e876d29a-p_e.jpg,1327500,,-77.229515,38.906055,RECENTLY_SOLD,72489952,6196.0,-1,5.0,5.0,USA,USD,acres,True,
234,34,1635750000000,SINGLE_FAMILY,0.59,"1373 Carpers Farm Way, Vienna, VA 22182",https://photos.zillowstatic.com/fp/c4886ff3b8a1a228224e6e41d25e1275-p_e.jpg,1155000,,-77.30128,38.964417,RECENTLY_SOLD,51723467,3982.0,-1,5.0,4.0,USA,USD,acres,True,
235,35,1635750000000,SINGLE_FAMILY,10454.4,"8457 Hunt Valley Dr, Vienna, VA 22182",https://photos.zillowstatic.com/fp/96ae6431eca0ced5e987e36ae6d140d9-p_e.jpg,863000,,-77.23521,38.90928,RECENTLY_SOLD,51773902,2500.0,-1,3.0,4.0,USA,USD,sqft,True,
236,36,1635750000000,SINGLE_FAMILY,4977.0,"9690 Farmside Pl, Vienna, VA 22182","https://maps.googleapis.com/maps/api/staticmap?mobile=false&sensor=true&maptype=satellite&size=575x242&zoom=17&center=38.95830535888672,-77.28076171875&key=AIzaSyBJsNQO5ZeG-XAbqqWLKwG08fWITSxg33w&signature=MnCq5le66ykSFcEu7SvKKGJ14BI=",825000,,-77.28076,38.958305,RECENTLY_SOLD,59786239,2400.0,-1,4.0,3.5,USA,USD,sqft,,
237,37,1635750000000,SINGLE_FAMILY,10395.0,"110 Elm St SW, Vienna, VA 22180","https://maps.googleapis.com/maps/api/staticmap?mobile=false&sensor=true&maptype=satellite&size=575x242&zoom=17&center=38.89790725708008,-77.26203155517578&key=AIzaSyBJsNQO5ZeG-XAbqqWLKwG08fWITSxg33w&signature=SB1OCZmcHhQbrTxsRDmLijMn5aU=",750000,,-77.26203,38.897907,RECENTLY_SOLD,51772541,1748.0,-1,3.0,3.5,USA,USD,sqft,,
238,38,1635490800000,SINGLE_FAMILY,5.16,"1201 Towlston Rd, Great Falls, VA 22066",https://photos.zillowstatic.com/fp/cf9b2811f81812a8279903faa7cac971-p_e.jpg,3700000,,-77.258606,38.95867,RECENTLY_SOLD,51725560,11188.0,-1,7.0,8.0,USA,USD,sqft,True,
239,39,1635490800000,SINGLE_FAMILY,0.58,"1011 Ware St SW #6, Vienna, VA 22180",https://photos.zillowstatic.com/fp/f323b9c9c6825325eab1723833306e3e-p_e.jpg,1818820,,,,RECENTLY_SOLD,2068389466,0.0,-1,5.0,6.0,USA,USD,acres,True,
240,0,1635490800000,SINGLE_FAMILY,0.41,"104 Westmanor Ct SE, Vienna, VA 22180",https://photos.zillowstatic.com/fp/3c2556a94f3a439b6de65bfc59bc4576-p_e.jpg,1550000,,-77.251175,38.90978,RECENTLY_SOLD,51769429,5723.0,-1,6.0,5.0,USA,USD,acres,True,
241,1,1635490800000,SINGLE_FAMILY,0.26,"8725 Litwalton Ct, Vienna, VA 22182",https://photos.zillowstatic.com/fp/81a95a3251e3f6f69bed0cf46bfebd30-p_e.jpg,950073,,-77.24066,38.902073,RECENTLY_SOLD,51777369,1868.0,-1,4.0,2.0,USA,USD,acres,True,
242,2,1635490800000,SINGLE_FAMILY,0.39,"1215 Ware St SW, Vienna, VA 22180",https://photos.zillowstatic.com/fp/850467e8d4cb6539f512fa62b48451c5-p_e.jpg,825000,,-77.25451,38.879776,RECENTLY_SOLD,51803735,3939.0,-1,3.0,4.0,USA,USD,acres,True,
243,3,1635490800000,SINGLE_FAMILY,1.0,"9926 Browns Mill Rd, Vienna, VA 22182",https://photos.zillowstatic.com/fp/e64ca9744446a330baa1386215ef2b27-p_e.jpg,1250000,,-77.29065,38.95303,RECENTLY_SOLD,51724846,5006.0,-1,5.0,5.0,USA,USD,sqft,True,
244,4,1635490800000,SINGLE_FAMILY,0.36,"516 Walker St SW, Vienna, VA 22180",https://photos.zillowstatic.com/fp/7665bbdca7412a08f33a5b3066585576-p_e.jpg,793800,,-77.25343,38.882153,RECENTLY_SOLD,51803747,2333.0,-1,4.0,3.0,USA,USD,acres,True,
245,5,1635490800000,SINGLE_FAMILY,0.43044077134986,"2419 Luckett Ave, Vienna, VA 22180","https://maps.googleapis.com/maps/api/staticmap?mobile=false&sensor=true&maptype=satellite&size=575x242&zoom=17&center=38.89249801635742,-77.24016571044922&key=AIzaSyBJsNQO5ZeG-XAbqqWLKwG08fWITSxg33w&signature=6Vo8lAMhQPEaqBhmwwHX0aNF1To=",750000,,-77.240166,38.892498,RECENTLY_SOLD,51776453,1296.0,-1,,3.0,USA,USD,acres,,
246,6,1635490800000,SINGLE_FAMILY,0.29,"908 Hillcrest Dr SW, Vienna, VA 22180",https://photos.zillowstatic.com/fp/7452fac635231b4e579994f84634fa92-p_e.jpg,1689000,,-77.2608,38.889355,RECENTLY_SOLD,51772071,5709.0,-1,6.0,6.0,USA,USD,acres,True,
247,7,1635490800000,SINGLE_FAMILY,0.49,"1310 Colvin Forest Dr, Vienna, VA 22182",https://photos.zillowstatic.com/fp/9e2bd9400b18e26171a446b3e22b9a2c-p_e.jpg,1100000,,-77.30196,38.968945,RECENTLY_SOLD,51723315,3292.0,-1,3.0,3.0,USA,USD,acres,True,
248,8,1635490800000,SINGLE_FAMILY,0.57594123048668,"1011 Ware St SW, Vienna, VA 22180","https://maps.googleapis.com/maps/api/staticmap?mobile=false&sensor=true&maptype=satellite&size=575x242&zoom=17&center=38.88393020629883,-77.26222229003906&key=AIzaSyBJsNQO5ZeG-XAbqqWLKwG08fWITSxg33w&signature=8CKhqmH80Ur2jZOzpLMIgeoMX2w=",1818820,,-77.26222,38.88393,RECENTLY_SOLD,333569064,1534.0,-1,,3.0,USA,USD,acres,,
249,9,1635490800000,SINGLE_FAMILY,0.5,"1124 Westbriar Ct NE, Vienna, VA 22180",https://photos.zillowstatic.com/fp/48235a75c5902ed2c1b23c6b9a126a40-p_e.jpg,2049750,,-77.245026,38.91869,RECENTLY_SOLD,51748380,5871.0,-1,6.0,7.0,USA,USD,acres,True,
250,10,1635490800000,SINGLE_FAMILY,0.33,"10056 Oakley Ct, Vienna, VA 22181",https://photos.zillowstatic.com/fp/252866f08066b89945d6736c10daa8cd-p_e.jpg,1255000,,-77.29368,38.889076,RECENTLY_SOLD,51768178,4930.0,-1,6.0,6.0,USA,USD,acres,True,
251,11,1635490800000,SINGLE_FAMILY,10454.4,"453 Orchard St NW, Vienna, VA 22180",https://photos.zillowstatic.com/fp/3cb7668868e0e66a27b561f369ede9ef-p_e.jpg,860000,,-77.27704,38.90057,RECENTLY_SOLD,51771251,2824.0,-1,4.0,4.0,USA,USD,sqft,True,
252,12,1635490800000,SINGLE_FAMILY,0.3,"1002 Glyndon St SE, Vienna, VA 22180",https://photos.zillowstatic.com/fp/0934fbbd96461391fa25a539479eb5fa-p_e.jpg,1780000,,-77.2471,38.894688,RECENTLY_SOLD,51777235,5191.0,-1,5.0,6.0,USA,USD,acres,True,
253,13,1635490800000,SINGLE_FAMILY,0.43,"203 Niblick Dr SE, Vienna, VA 22180",https://photos.zillowstatic.com/fp/ceca16e0a15f4f374671d4d7e8fba076-p_e.jpg,1870000,,-77.25023,38.90974,RECENTLY_SOLD,110690155,5716.0,-1,5.0,5.0,USA,USD,acres,True,
254,14,1635404400000,SINGLE_FAMILY,0.26,"2516 Villanova Dr, Vienna, VA 22180",https://photos.zillowstatic.com/fp/b7af8f7aed85d37c2e8fff0a9ad012a6-p_e.jpg,1473400,,-77.23161,38.88752,PENDING,51808201,3420.0,-1,4.0,5.0,USA,USD,acres,True,True
255,15,1635231600000,SINGLE_FAMILY,0.35,"701 Meadow Ln SW, Vienna, VA 22180",https://photos.zillowstatic.com/fp/d6a3d9c9d9bc958b4d47210bcddd8602-p_e.jpg,2140000,,-77.26902,38.88882,RECENTLY_SOLD,51804218,6137.0,-1,7.0,7.0,USA,USD,acres,True,
256,16,1635231600000,SINGLE_FAMILY,0.81,"1300 Beulah Rd, Vienna, VA 22182",https://photos.zillowstatic.com/fp/0f192dfcdd6a3fe62bce94a4d18630d2-p_e.jpg,1010000,,-77.27558,38.958096,RECENTLY_SOLD,51724855,6768.0,-1,5.0,5.0,USA,USD,acres,True,
257,17,1635231600000,SINGLE_FAMILY,0.36,"1314 Towlston Rd, Vienna, VA 22182",https://photos.zillowstatic.com/fp/65be929fdcd298003126360dd9545b8d-p_e.jpg,835000,,-77.26509,38.949486,RECENTLY_SOLD,51725572,2836.0,-1,5.0,3.0,USA,USD,acres,True,
258,18,1635231600000,SINGLE_FAMILY,7840.8,"8356 Idylwood Rd, Vienna, VA 22182",https://photos.zillowstatic.com/fp/eff8f104018491e140554ed6219ed076-p_e.jpg,815000,,-77.23299,38.898342,RECENTLY_SOLD,51776779,2400.0,-1,3.0,4.0,USA,USD,sqft,True,
259,19,1635231600000,SINGLE_FAMILY,0.31,"1829 Grampion Pl, Vienna, VA 22182",https://photos.zillowstatic.com/fp/67f1fe6d045b8f70d17a6052503c4e27-p_e.jpg,855000,,-77.27339,38.921104,RECENTLY_SOLD,51745635,1741.0,-1,4.0,3.0,USA,USD,acres,True,
260,20,1635145200000,SINGLE_FAMILY,0.26,"1809 Prelude Dr, Vienna, VA 22182",https://photos.zillowstatic.com/fp/7bd6e4e31a30dd950d3d2d33ce6c38ec-p_e.jpg,1100000,,-77.27734,38.91748,RECENTLY_SOLD,51745773,4450.0,-1,5.0,4.0,USA,USD,acres,True,
261,21,1635145200000,SINGLE_FAMILY,0.38,"9810 Meadow Dale Ct, Vienna, VA 22181",https://photos.zillowstatic.com/fp/126e7984463d0913e23a4aa4cb16669c-p_e.jpg,845000,,-77.28567,38.91162,RECENTLY_SOLD,51769116,2200.0,-1,5.0,3.0,USA,USD,acres,True,
262,22,1635145200000,SINGLE_FAMILY,0.84,"LOT 12 Oakton Dr, Oakton, VA 22124",https://photos.zillowstatic.com/fp/0326ee3d99d958da077f90c5cc1952be-p_e.jpg,1638927,,,,RECENTLY_SOLD,2078979496,4248.0,-1,5.0,5.0,USA,USD,acres,True,
263,23,1635145200000,SINGLE_FAMILY,0.78,"8613 Hilltop Rd, Vienna, VA 22180",https://photos.zillowstatic.com/fp/0f33428a7c246f78af8d9eeb51a54664-p_e.jpg,850000,,-77.24294,38.876884,RECENTLY_SOLD,51807806,3930.0,-1,4.0,5.0,USA,USD,acres,True,
264,24,1635145200000,SINGLE_FAMILY,0.66,"10325 Lynch Ln, Oakton, VA 22124",https://photos.zillowstatic.com/fp/2732030c083265816027e3f53f75f812-p_e.jpg,1635000,,-77.30295,38.889114,RECENTLY_SOLD,119112341,7250.0,-1,5.0,5.0,USA,USD,acres,True,
265,25,1634886000000,SINGLE_FAMILY,0.5,"2322 Trott Ave, Vienna, VA 22181",https://photos.zillowstatic.com/fp/fd5992933aeedd4b31f4c0bb3c4486d6-p_e.jpg,850000,,-77.29523,38.905266,RECENTLY_SOLD,51766950,2332.0,-1,4.0,3.0,USA,USD,acres,True,
266,26,1634886000000,SINGLE_FAMILY,10454.4,"114 Elm St SW, Vienna, VA 22180",https://photos.zillowstatic.com/fp/fa240700a7127781e12e75857ef9466f-p_e.jpg,1919743,,-77.262344,38.89765,RECENTLY_SOLD,51772539,5288.0,-1,6.0,6.0,USA,USD,sqft,True,
267,27,1634886000000,SINGLE_FAMILY,0.63,"10203 Brittenford Dr, Vienna, VA 22182",https://photos.zillowstatic.com/fp/f1758d11b1058f2faab7557f80201d09-p_e.jpg,1485000,,-77.29695,38.943333,RECENTLY_SOLD,51743678,5180.0,-1,5.0,5.0,USA,USD,acres,True,
268,28,1634886000000,SINGLE_FAMILY,0.36,"1402 Baritone Ct, Vienna, VA 22182",https://photos.zillowstatic.com/fp/75eec09757e714ae92f46568b4d2a343-p_e.jpg,987000,,-77.27063,38.94875,RECENTLY_SOLD,51725632,2804.0,-1,5.0,3.0,USA,USD,acres,True,
269,29,1634886000000,SINGLE_FAMILY,0.98,"9817 Wintercress Ct, Vienna, VA 22182",https://photos.zillowstatic.com/fp/6ae5d2580b71296e54329b46fb5e7d74-p_e.jpg,1025000,,-77.29168,38.950253,RECENTLY_SOLD,51725256,3200.0,-1,5.0,4.0,USA,USD,acres,True,
270,30,1634886000000,SINGLE_FAMILY,1.25,"9617 Courthouse Rd, Vienna, VA 22181",https://photos.zillowstatic.com/fp/1357199025843f3e73baec6c6a66299b-p_e.jpg,650000,,-77.2774,38.886723,RECENTLY_SOLD,51801584,6400.0,-1,5.0,6.0,USA,USD,acres,True,
271,31,1634886000000,SINGLE_FAMILY,0.26189164370983,"122 Locust St SW, Vienna, VA 22180","https://maps.googleapis.com/maps/api/staticmap?mobile=false&sensor=true&maptype=satellite&size=575x242&zoom=17&center=38.8985481262207,-77.2647705078125&key=AIzaSyBJsNQO5ZeG-XAbqqWLKwG08fWITSxg33w&signature=6P7NYOjN-8Q5HGtCO_8Ys_dcQKk=",780000,,-77.26477,38.89855,RECENTLY_SOLD,51772512,1002.0,-1,2.0,2.0,USA,USD,acres,,
272,32,1634799600000,SINGLE_FAMILY,0.83,"1343 Belasco Valley Cir, Great Falls, VA 22066",https://photos.zillowstatic.com/fp/9005f02007481d63ff941ebfc3e0edbe-p_e.jpg,2532958,,,,RECENTLY_SOLD,2067674756,6887.0,-1,5.0,6.0,USA,USD,acres,True,
273,33,1634799600000,SINGLE_FAMILY,0.61,"1709 Raleigh Hill Rd, Vienna, VA 22182",https://photos.zillowstatic.com/fp/d906a379b9e84d680abca16faef30577-p_e.jpg,1460000,,-77.303665,38.94631,RECENTLY_SOLD,51724090,5450.0,-1,6.0,5.0,USA,USD,acres,True,
274,34,1634799600000,SINGLE_FAMILY,0.25431588613407,"8326 Syracuse Cir, Vienna, VA 22180","https://maps.googleapis.com/maps/api/staticmap?mobile=false&sensor=true&maptype=satellite&size=575x242&zoom=17&center=38.88453674316406,-77.23421478271484&key=AIzaSyBJsNQO5ZeG-XAbqqWLKwG08fWITSxg33w&signature=0xv3hbw4UuFtt_Ft1u6p7Dw2Bo0=",625000,,-77.234215,38.884537,RECENTLY_SOLD,51808172,1153.0,-1,3.0,2.0,USA,USD,acres,,
275,35,1634799600000,SINGLE_FAMILY,5662.8,"8154 Silverberry Way, Vienna, VA 22182",https://photos.zillowstatic.com/fp/2da6ee6eb4803e1e9bbf5771dcec691d-p_e.jpg,1150000,,-77.22795,38.904537,RECENTLY_SOLD,51775944,5246.0,-1,5.0,5.0,USA,USD,sqft,True,
276,36,1634713200000,SINGLE_FAMILY,10454.4,"700 Park St SE, Vienna, VA 22180",https://photos.zillowstatic.com/fp/217f47d874e340c085c6d511cb8c5127-p_e.jpg,1375000,,-77.255516,38.898216,RECENTLY_SOLD,51771931,4465.0,-1,5.0,3.0,USA,USD,sqft,True,
277,37,1634713200000,SINGLE_FAMILY,0.52,"1342 Carpers Farm Way, Vienna, VA 22182",https://photos.zillowstatic.com/fp/1123f01774c0cecdb42aa9943c25abc2-p_e.jpg,1217500,,-77.29686,38.963505,RECENTLY_SOLD,51723437,3722.0,-1,5.0,4.0,USA,USD,acres,True,
278,38,1634713200000,SINGLE_FAMILY,10018.8,"604 Tapawingo Rd SW, Vienna, VA 22180",https://photos.zillowstatic.com/fp/04c949af43e2ccaef12f99271cf7c852-p_e.jpg,725000,,-77.265594,38.887974,RECENTLY_SOLD,51804003,1675.0,-1,3.0,2.0,USA,USD,sqft,True,
279,39,1634626800000,SINGLE_FAMILY,0.31,"9708 Decree Ln, Vienna, VA 22181",https://photos.zillowstatic.com/fp/12806c6cd96dc70515b3093eaec10ca1-p_e.jpg,801255,,-77.28073,38.90907,RECENTLY_SOLD,51768659,1980.0,-1,4.0,3.0,USA,USD,acres,True,
280,0,1634626800000,SINGLE_FAMILY,5227.2,"8423 Hollis Ln, Vienna, VA 22182",https://photos.zillowstatic.com/fp/7559ff11b3b42b0e14f21e2619f508a8-p_e.jpg,805000,,-77.23423,38.900616,RECENTLY_SOLD,51777621,1744.0,-1,3.0,4.0,USA,USD,sqft,True,
281,1,1634626800000,SINGLE_FAMILY,0.27,"2340 Riviera Dr, Vienna, VA 22181",https://photos.zillowstatic.com/fp/9e2b0ec5ce688f5f2c168cf6a5540f04-p_e.jpg,877500,,-77.28732,38.90203,RECENTLY_SOLD,51771113,1980.0,-1,5.0,4.0,USA,USD,acres,True,
282,2,1634626800000,SINGLE_FAMILY,0.5524334251607,"1104 Westbriar Ct NE, Vienna, VA 22180","https://maps.googleapis.com/maps/api/staticmap?mobile=false&sensor=true&maptype=satellite&size=575x242&zoom=17&center=38.91798782348633,-77.24404907226562&key=AIzaSyBJsNQO5ZeG-XAbqqWLKwG08fWITSxg33w&signature=I9CkQrYeb3mgYwavdelturXSNwo=",470000,,-77.24405,38.917988,RECENTLY_SOLD,51748385,1392.0,-1,4.0,2.5,USA,USD,acres,,
283,3,1634540400000,SINGLE_FAMILY,0.26999540863177,"402 Kingsley Rd SW, Vienna, VA 22180",https://photos.zillowstatic.com/fp/1ad64b3eb0354816f04f6c2f6c6de362-p_e.jpg,1750000,,-77.25942,38.887283,RECENTLY_SOLD,51803440,6315.0,-1,6.0,6.0,USA,USD,acres,True,
284,4,1634540400000,SINGLE_FAMILY,0.3,"9920 Corsica St, Vienna, VA 22181",https://photos.zillowstatic.com/fp/470d3e7da7e410b245769f3d8f3038cd-p_e.jpg,900000,,-77.288506,38.903816,RECENTLY_SOLD,51768958,2100.0,-1,4.0,4.0,USA,USD,acres,True,
285,5,1634540400000,SINGLE_FAMILY,0.83,"1804 Watervale Way, Vienna, VA 22182",https://photos.zillowstatic.com/fp/6a6cfa44f76dbc7e73c62cb7086b9ec5-p_e.jpg,1900000,,-77.28082,38.92461,RECENTLY_SOLD,51746094,6502.0,-1,5.0,6.0,USA,USD,acres,True,
286,6,1634540400000,SINGLE_FAMILY,0.3,"1716 Pine Valley Dr, Vienna, VA 22182",https://photos.zillowstatic.com/fp/789a0d15c4fac0616213b1e94ce70710-p_e.jpg,825000,,-77.24485,38.923725,RECENTLY_SOLD,51748560,1950.0,-1,4.0,3.0,USA,USD,acres,True,
287,7,1634540400000,SINGLE_FAMILY,0.48,"9706 Spring Ridge Ln, Vienna, VA 22182",https://photos.zillowstatic.com/fp/6b98a0f86fbbe8c69b865d5b1ca64931-p_e.jpg,1200000,,-77.280525,38.95502,RECENTLY_SOLD,51725166,3566.0,-1,4.0,4.0,USA,USD,acres,True,
288,8,1634281200000,SINGLE_FAMILY,0.28,"1002 Frederick St SW, Vienna, VA 22180",https://photos.zillowstatic.com/fp/dbdbcccdefd95ef905ff69155a01b56f-p_e.jpg,1750000,,,,RECENTLY_SOLD,2068779982,6315.0,-1,6.0,6.0,USA,USD,acres,True,
289,9,1634281200000,SINGLE_FAMILY,0.28,"1916 Hull Rd, Vienna, VA 22182",https://photos.zillowstatic.com/fp/3bf2475c98a3e85599ab43d19d4efcde-p_e.jpg,740000,,-77.23352,38.91258,RECENTLY_SOLD,51773541,1596.0,-1,5.0,3.0,USA,USD,acres,True,
290,10,1634281200000,SINGLE_FAMILY,9147.6,"422 E St NE, Vienna, VA 22180",https://photos.zillowstatic.com/fp/4b2583db727af8d30aaba01d94637d25-p_e.jpg,1150000,,-77.259705,38.91482,RECENTLY_SOLD,51770441,4650.0,-1,4.0,4.0,USA,USD,sqft,True,
291,11,1634281200000,SINGLE_FAMILY,0.47,"9921 Chase Hill Ct, Vienna, VA 22182",https://photos.zillowstatic.com/fp/1d41d7b84e30cb0e7281fb0299f16573-p_e.jpg,950000,,-77.288734,38.9581,RECENTLY_SOLD,51725203,3700.0,-1,5.0,3.0,USA,USD,acres,True,
292,12,1634281200000,SINGLE_FAMILY,0.37,"409 Wolftrap Rd SE, Vienna, VA 22180",https://photos.zillowstatic.com/fp/a1c44235413c3eb8db55d7be724386ef-p_e.jpg,1879262,,-77.24597,38.90996,RECENTLY_SOLD,51773673,4685.0,-1,5.0,5.0,USA,USD,acres,True,
293,13,1634194800000,SINGLE_FAMILY,0.52,"1009 Ware St SW LOT 7, Vienna, VA 22180",https://photos.zillowstatic.com/fp/91f65f352c8de917fbe83585f934acd2-p_e.jpg,1834020,,,,RECENTLY_SOLD,2069934631,5962.0,-1,7.0,8.0,USA,USD,acres,True,
294,14,1634194800000,SINGLE_FAMILY,10454.4,"235 Locust St SE, Vienna, VA 22180",https://photos.zillowstatic.com/fp/bcdaef8b2087758a3aaefeb326bf6739-p_e.jpg,1103000,,-77.25914,38.903034,RECENTLY_SOLD,64850875,2564.0,-1,5.0,4.0,USA,USD,sqft,True,
295,15,1634194800000,SINGLE_FAMILY,6534.0,"9728 Hidden Valley Rd, Vienna, VA 22181",https://photos.zillowstatic.com/fp/c936f443576e106f2ec87af7ef47a851-p_e.jpg,1000000,,-77.283676,38.885544,RECENTLY_SOLD,51803068,3385.0,-1,4.0,4.0,USA,USD,sqft,True,
296,16,1634194800000,SINGLE_FAMILY,0.82665289256198,"9192 Farber Forge Ct, Great Falls, VA 22102","https://maps.googleapis.com/maps/api/staticmap?mobile=false&sensor=true&maptype=satellite&size=575x242&zoom=17&center=38.954776763916016,-77.25863647460938&key=AIzaSyBJsNQO5ZeG-XAbqqWLKwG08fWITSxg33w&signature=6qO192CfOp_gv21gG_hZYprTMYs=",2852646,,-77.25864,38.954777,RECENTLY_SOLD,306650176,7031.0,-1,5.0,7.0,USA,USD,acres,,
297,17,1634108400000,SINGLE_FAMILY,0.94,"9194 Farber Forge Ct, Great Falls, VA 22102","https://maps.googleapis.com/maps/api/staticmap?mobile=false&sensor=true&maptype=satellite&size=575x242&zoom=17&center=38.95476150512695,-77.25914764404297&key=AIzaSyBJsNQO5ZeG-XAbqqWLKwG08fWITSxg33w&signature=z4lCoP4zNl6SXVnXnosM7svBqsU=",2852646,,-77.25915,38.95476,RECENTLY_SOLD,306650175,7077.0,-1,5.0,7.0,USA,USD,acres,,
298,18,1634108400000,SINGLE_FAMILY,0.49,"9516 Bent Creek Ln, Vienna, VA 22182",https://photos.zillowstatic.com/fp/357c5be7d9e1f0c79ff6cdafddba624d-p_e.jpg,1250000,,-77.275276,38.955368,RECENTLY_SOLD,51725061,3640.0,-1,4.0,4.0,USA,USD,acres,True,
299,19,1634108400000,SINGLE_FAMILY,0.50417814508724,"639 Hillcrest Dr SW, Vienna, VA 22180","https://maps.googleapis.com/maps/api/staticmap?mobile=false&sensor=true&maptype=satellite&size=575x242&zoom=17&center=38.89228439331055,-77.26234436035156&key=AIzaSyBJsNQO5ZeG-XAbqqWLKwG08fWITSxg33w&signature=VKF2spQvesDCEFUB5UHYJoGOCPY=",1000000,,-77.262344,38.892284,RECENTLY_SOLD,51772301,1794.0,-1,3.0,2.0,USA,USD,acres,,
300,20,1634022000000,SINGLE_FAMILY,10454.4,"203 Owaissa Ct SE, Vienna, VA 22180",https://photos.zillowstatic.com/fp/d17a6dbc91d57500663a1c63f95378b2-p_e.jpg,890000,,-77.25015,38.89572,RECENTLY_SOLD,51773167,2513.0,-1,4.0,3.0,USA,USD,sqft,True,
301,21,1634022000000,SINGLE_FAMILY,0.69,"9746 Vale Rd NW, Vienna, VA 22181",https://photos.zillowstatic.com/fp/b60fe1153d8fb69c93758c861e9dfe9f-p_e.jpg,899746,,-77.283264,38.8995,RECENTLY_SOLD,51770901,2778.0,-1,4.0,3.0,USA,USD,acres,True,
302,22,1634022000000,SINGLE_FAMILY,0.79,"1506 Black Eyed Susan Ln, Vienna, VA 22182",https://photos.zillowstatic.com/fp/d2f69ca88e4787b8f51221788922bd1b-p_e.jpg,1335000,,-77.289505,38.94795,RECENTLY_SOLD,51725299,3819.0,-1,5.0,4.0,USA,USD,acres,True,
303,23,1634022000000,SINGLE_FAMILY,8712.0,"1901 Aubrey Place Ct, Vienna, VA 22182",https://photos.zillowstatic.com/fp/f1d29acd250993c4eba8188051078790-p_e.jpg,876000,,-77.28385,38.920895,RECENTLY_SOLD,51745943,2716.0,-1,4.0,3.0,USA,USD,sqft,True,
304,24,1634022000000,SINGLE_FAMILY,1.91,"2101 Hunters Crest Way, Vienna, VA 22181",https://photos.zillowstatic.com/fp/f7f1d1c7b27285b9bcc5905cc19bc053-p_e.jpg,1572000,,-77.31245,38.92469,RECENTLY_SOLD,51744137,6966.0,-1,4.0,6.0,USA,USD,sqft,True,
305,25,1634022000000,SINGLE_FAMILY,10454.4,"508 Alma St SE, Vienna, VA 22180",https://photos.zillowstatic.com/fp/2398ed525284b58cdb55654da9e9bacf-p_e.jpg,1568150,,-77.24975,38.904243,RECENTLY_SOLD,51773603,4222.0,-1,5.0,5.0,USA,USD,sqft,True,
306,26,1634022000000,SINGLE_FAMILY,6534.0,"9555 Grand Oaks Ct, Vienna, VA 22181",https://photos.zillowstatic.com/fp/5e4b28ead076a8dfa025e7c1f4b8da5a-p_e.jpg,770000,,-77.275314,38.889477,RECENTLY_SOLD,51771604,1752.0,-1,3.0,3.0,USA,USD,sqft,True,
307,27,1633762800000,SINGLE_FAMILY,0.5,"611 Hillcrest Dr SW, Vienna, VA 22180","https://maps.googleapis.com/maps/api/staticmap?mobile=false&sensor=true&maptype=satellite&size=575x242&zoom=17&center=38.893314361572266,-77.26337432861328&key=AIzaSyBJsNQO5ZeG-XAbqqWLKwG08fWITSxg33w&signature=zi-sX_aToIbjosXjytNxwsLQIFw=",1057600,,-77.263374,38.893314,RECENTLY_SOLD,51772295,1098.0,-1,3.0,3.0,USA,USD,acres,,
308,28,1633762800000,SINGLE_FAMILY,0.25,"2438 Holt St, Vienna, VA 22180",https://photos.zillowstatic.com/fp/4faca7b2dc60545dee7695a5591ea1d2-p_e.jpg,700000,,-77.233444,38.891273,RECENTLY_SOLD,51777050,2713.0,-1,4.0,3.0,USA,USD,acres,True,
309,29,1633676400000,SINGLE_FAMILY,0.28007346189164,"116 Elmar Dr SE, Vienna, VA 22180","https://maps.googleapis.com/maps/api/staticmap?mobile=false&sensor=true&maptype=satellite&size=575x242&zoom=17&center=38.89630126953125,-77.25421905517578&key=AIzaSyBJsNQO5ZeG-XAbqqWLKwG08fWITSxg33w&signature=Fk-rnMDC3M1n-x9iVcmOQufsay8=",848000,,-77.25422,38.8963,RECENTLY_SOLD,51772835,1008.0,-1,,2.0,USA,USD,acres,,
310,30,1633676400000,SINGLE_FAMILY,0.45913682277319,"1297 Difficult Run Ct, Vienna, VA 22182","https://maps.googleapis.com/maps/api/staticmap?mobile=false&sensor=true&maptype=satellite&size=575x242&zoom=17&center=38.9615592956543,-77.2804183959961&key=AIzaSyBJsNQO5ZeG-XAbqqWLKwG08fWITSxg33w&signature=LlLMMZnfgjbcg3Xlvh8WyRWQIfw=",130973,,-77.28042,38.96156,RECENTLY_SOLD,51724455,4124.0,-1,4.0,4.5,USA,USD,acres,,
311,31,1633590000000,SINGLE_FAMILY,0.46,"2425 Hunter Mill Rd, Vienna, VA 22181",https://photos.zillowstatic.com/fp/d34787b55807bb41db1a7498cd6aa102-p_e.jpg,720000,,-77.30279,38.905003,RECENTLY_SOLD,51767044,2547.0,-1,4.0,3.0,USA,USD,acres,True,
312,32,1633590000000,SINGLE_FAMILY,8712.0,"9856 Hidden Estates Cv, Vienna, VA 22181",https://photos.zillowstatic.com/fp/277decff6fb7464ce4f7712a2851dd85-p_e.jpg,1250000,,-77.28645,38.88365,RECENTLY_SOLD,51802843,4704.0,-1,4.0,4.0,USA,USD,sqft,True,
313,33,1633590000000,SINGLE_FAMILY,0.63,"2725 Willow Dr, Vienna, VA 22181",https://photos.zillowstatic.com/fp/eb0ca1e3e8dd38b894fc5d0f73186ef6-p_e.jpg,2000000,,-77.2946,38.88874,RECENTLY_SOLD,51799087,6893.0,-1,6.0,6.0,USA,USD,acres,True,
314,34,1633590000000,SINGLE_FAMILY,0.91,"1371 Tate Modern Ln, Great Falls, VA 22066","https://maps.googleapis.com/maps/api/staticmap?mobile=false&sensor=true&maptype=satellite&size=575x242&zoom=17&center=38.95186233520508,-77.26235961914062&key=AIzaSyBJsNQO5ZeG-XAbqqWLKwG08fWITSxg33w&signature=iDOY4hunwjAazyiPG1W8KxjS_d8=",2270537,,-77.26236,38.951862,RECENTLY_SOLD,306650204,6249.0,-1,5.0,7.0,USA,USD,acres,,
315,35,1633590000000,SINGLE_FAMILY,10454.4,"9315 Talisman Dr, Vienna, VA 22182",https://photos.zillowstatic.com/fp/dd810d4b10f50b3144da19bbc7f56d2d-p_e.jpg,825000,,-77.2686,38.917435,RECENTLY_SOLD,51746897,2452.0,-1,5.0,3.0,USA,USD,sqft,True,
316,36,1633590000000,SINGLE_FAMILY,1.0581496786042,"9105 Lucky Estates Dr, Vienna, VA 22182",https://photos.zillowstatic.com/fp/584f74d0ccc295cd324d9d3b7b0be9c4-p_e.jpg,72600,,-77.2595,38.946026,RECENTLY_SOLD,51725843,4652.0,-1,5.0,5.0,USA,USD,acres,True,
317,37,1633503600000,SINGLE_FAMILY,0.4,"1425 Trapline Ct, Vienna, VA 22182",https://photos.zillowstatic.com/fp/6cd13ae4aee04b0408f55d25617e978f-p_e.jpg,1010000,,-77.25978,38.941364,RECENTLY_SOLD,51745072,3955.0,-1,5.0,3.0,USA,USD,acres,True,
318,38,1633503600000,SINGLE_FAMILY,0.3,"508 Princeton Ter SW, Vienna, VA 22180",https://photos.zillowstatic.com/fp/44eb9b9ba541970dc41102aed73f02d6-p_e.jpg,1200000,,-77.27111,38.88784,RECENTLY_SOLD,51801768,3487.0,-1,5.0,5.0,USA,USD,acres,True,
319,39,1633503600000,SINGLE_FAMILY,0.35,"9642 Cinnamon Creek Dr, Vienna, VA 22182",https://photos.zillowstatic.com/fp/f5bdde7353187d64b2d009ca80e2fb25-p_e.jpg,735000,,-77.27708,38.94445,RECENTLY_SOLD,51744566,1478.0,-1,5.0,3.0,USA,USD,acres,True,
320,0,1633417200000,SINGLE_FAMILY,0.94,"9905 Carrhill Ct, Vienna, VA 22181",https://photos.zillowstatic.com/fp/6aa386325b7a22b0499edfd8ecf18139-p_e.jpg,1070000,,-77.28845,38.918453,RECENTLY_SOLD,51745458,2841.0,-1,5.0,4.0,USA,USD,acres,True,
321,1,1633417200000,SINGLE_FAMILY,0.55557851239669,"2751 Hill Rd, Vienna, VA 22181",https://photos.zillowstatic.com/fp/2d988d0ec7c6d8e11a3ed81ba637403d-p_e.jpg,1100000,,-77.297935,38.89047,RECENTLY_SOLD,51768055,3778.0,-1,5.0,4.0,USA,USD,acres,True,
322,2,1633330800000,SINGLE_FAMILY,10454.4,"2617 Occidental Dr, Vienna, VA 22180",https://photos.zillowstatic.com/fp/5ab4b5f71216b99f6925a0aba6c719d3-p_e.jpg,785000,,-77.24377,38.883232,RECENTLY_SOLD,51808495,2545.0,-1,4.0,3.0,USA,USD,sqft,True,
323,3,1633330800000,SINGLE_FAMILY,0.56737832874197,"324 W St NW, Vienna, VA 22180","https://maps.googleapis.com/maps/api/staticmap?mobile=false&sensor=true&maptype=satellite&size=575x242&zoom=17&center=38.90203857421875,-77.2723159790039&key=AIzaSyBJsNQO5ZeG-XAbqqWLKwG08fWITSxg33w&signature=GIVNauZ5hU4HXV0S4zeNrJoWNGg=",1570000,,-77.272316,38.90204,RECENTLY_SOLD,51770559,4752.0,-1,5.0,3.5,USA,USD,acres,,
324,4,1633071600000,SINGLE_FAMILY,0.57,"324 West St, Vienna, VA 22180",https://photos.zillowstatic.com/fp/20cf93369cb7d8698a7501121c37c025-p_e.jpg,1570000,,,,RECENTLY_SOLD,2067172421,4755.0,-1,5.0,4.0,USA,USD,acres,True,
325,5,1633071600000,SINGLE_FAMILY,0.34,"1333 Vanetta Ln, Vienna, VA 22182",https://photos.zillowstatic.com/fp/d7b76fa89e9d25b30ed587511a3991ff-p_e.jpg,1255750,,-77.26656,38.951427,RECENTLY_SOLD,51725694,2632.0,-1,4.0,4.0,USA,USD,acres,True,
326,6,1633071600000,SINGLE_FAMILY,0.25,"2419 Rockbridge St, Vienna, VA 22180",https://photos.zillowstatic.com/fp/a6f049b5ddad9a35fa8c4a305aaadb7b-p_e.jpg,779000,,-77.23687,38.89232,RECENTLY_SOLD,51776920,2236.0,-1,4.0,3.0,USA,USD,acres,True,
327,7,1633071600000,SINGLE_FAMILY,2.12,"1522 Crowell Rd, Vienna, VA 22182",https://photos.zillowstatic.com/fp/5a3bb4af9c76e7f20baaba2245417acf-p_e.jpg,2950000,,-77.30488,38.9545,RECENTLY_SOLD,167791030,12000.0,-1,6.0,8.0,USA,USD,sqft,True,
328,8,1632985200000,SINGLE_FAMILY,5227.2,"8427 Hollis Ln, Vienna, VA 22182",https://photos.zillowstatic.com/fp/921d5de374e07a3f71bfc398bc03b4f5-p_e.jpg,829900,,-77.23394,38.900517,RECENTLY_SOLD,51777623,2515.0,-1,4.0,3.0,USA,USD,sqft,True,
329,9,1632985200000,SINGLE_FAMILY,0.27,"1205 Kelley St SW, Vienna, VA 22180",https://photos.zillowstatic.com/fp/3e3ba451841a04fc30f8526483d9521d-p_e.jpg,780000,,-77.2516,38.886402,RECENTLY_SOLD,51803822,2140.0,-1,4.0,2.0,USA,USD,acres,True,
330,10,1632985200000,SINGLE_FAMILY,0.29,"1124 Fairway Dr NE, Vienna, VA 22180",https://photos.zillowstatic.com/fp/68ab3c5b294b055af9e41c65d2c91e2d-p_e.jpg,900000,,-77.24755,38.919098,RECENTLY_SOLD,51748400,2233.0,-1,4.0,3.0,USA,USD,acres,True,
331,11,1632985200000,SINGLE_FAMILY,0.27,"8518 Marquette St, Vienna, VA 22180",https://photos.zillowstatic.com/fp/2e6e38b9a722071b1f4119686cd5c9ab-p_e.jpg,774900,,-77.24152,38.88195,RECENTLY_SOLD,51808519,1064.0,-1,3.0,2.0,USA,USD,acres,True,
332,12,1632985200000,SINGLE_FAMILY,0.35,"9832 Arroyo Ct, Vienna, VA 22181",https://photos.zillowstatic.com/fp/f4ace391fa158a3ee8aa2d9c0e71266a-p_e.jpg,950000,,-77.28658,38.906796,RECENTLY_SOLD,51768914,2066.0,-1,5.0,3.0,USA,USD,acres,True,
333,13,1632985200000,SINGLE_FAMILY,0.33,"203 Elm St SW, Vienna, VA 22180",https://photos.zillowstatic.com/fp/61a7f9af49d0339a3adce0480f792c10-p_e.jpg,2039500,,-77.26383,38.8973,RECENTLY_SOLD,51772624,6100.0,-1,6.0,7.0,USA,USD,acres,True,
334,14,1632985200000,SINGLE_FAMILY,0.87,"2844 Hill Rd, Vienna, VA 22181",https://photos.zillowstatic.com/fp/62e717561292cd6654f2b4ff4b369a30-p_e.jpg,1230000,,-77.29466,38.884007,RECENTLY_SOLD,51799067,3406.0,-1,4.0,4.0,USA,USD,acres,True,
335,15,1632985200000,SINGLE_FAMILY,0.46,"9803 Vale Rd, Vienna, VA 22181",https://photos.zillowstatic.com/fp/c4f4e8926d06ba569f4bfb208bb08acc-p_e.jpg,1125000,,-77.28412,38.89796,RECENTLY_SOLD,51771074,4064.0,-1,4.0,5.0,USA,USD,acres,True,
336,16,1632985200000,SINGLE_FAMILY,0.82,"9840 Corsini Ct, Vienna, VA 22182",https://photos.zillowstatic.com/fp/dc624c06ec85b8b007f1e8036b3c2664-p_e.jpg,2350000,,-77.28396,38.956577,RECENTLY_SOLD,117486606,8665.0,-1,5.0,7.0,USA,USD,acres,True,
337,17,1632898800000,SINGLE_FAMILY,0.56,"9831 Squaw Valley Dr, Vienna, VA 22182",https://photos.zillowstatic.com/fp/22f9b8508298f405c01bbb45e3e7dc80-p_e.jpg,1107000,,-77.29141,38.94299,RECENTLY_SOLD,51744781,4215.0,-1,4.0,4.0,USA,USD,acres,True,
338,18,1632898800000,SINGLE_FAMILY,10454.4,"8306 Cottage St, Vienna, VA 22180",https://photos.zillowstatic.com/fp/054f825ca516cd4667874afd816984a6-p_e.jpg,810000,,-77.232086,38.886288,RECENTLY_SOLD,51808180,2109.0,-1,4.0,3.0,USA,USD,sqft,True,
339,19,1632898800000,SINGLE_FAMILY,0.28,"2528 Bull Run Ct, Vienna, VA 22180",https://photos.zillowstatic.com/fp/8c083140e38b9597006d5add2696bcb3-p_e.jpg,785000,,-77.23672,38.88718,RECENTLY_SOLD,51808604,1989.0,-1,4.0,3.0,USA,USD,acres,True,
340,20,1632898800000,SINGLE_FAMILY,0.97968319559229,"9196 Farber Forge Ct, Great Falls, VA 22102","https://maps.googleapis.com/maps/api/staticmap?mobile=false&sensor=true&maptype=satellite&size=575x242&zoom=17&center=38.95476531982422,-77.25967407226562&key=AIzaSyBJsNQO5ZeG-XAbqqWLKwG08fWITSxg33w&signature=Gpp-mS3nvBjK-qv3zwTiD1wvgVA=",2620904,,-77.259674,38.954765,RECENTLY_SOLD,306650174,5613.0,-1,5.0,7.0,USA,USD,acres,,
341,21,1632726000000,SINGLE_FAMILY,10018.8,"1206 Cottage St SW, Vienna, VA 22180",https://photos.zillowstatic.com/fp/c78316957a5f4da1c6e8a2e9e967c012-p_e.jpg,750000,,-77.25123,38.8847,RECENTLY_SOLD,51803812,1858.0,-1,3.0,2.0,USA,USD,sqft,True,
342,22,1632726000000,SINGLE_FAMILY,4908.0,"1922 Tysons Trace Dr, Vienna, VA 22182","https://maps.googleapis.com/maps/api/staticmap?mobile=false&sensor=true&maptype=satellite&size=575x242&zoom=17&center=38.9141731262207,-77.23764038085938&key=AIzaSyBJsNQO5ZeG-XAbqqWLKwG08fWITSxg33w&signature=_HXuSsw99M6D8V3hOl9IunEKjpQ=",1000000,,-77.23764,38.914173,RECENTLY_SOLD,60379203,3554.0,-1,4.0,4.5,USA,USD,sqft,,
343,23,1632726000000,SINGLE_FAMILY,0.31,"2544 Villanova Ct, Vienna, VA 22180",https://photos.zillowstatic.com/fp/1d3365d0efe5d21664c5f3348507f172-p_e.jpg,755100,,-77.23363,38.8869,RECENTLY_SOLD,51808211,1176.0,-1,3.0,2.0,USA,USD,sqft,True,
344,24,1632726000000,SINGLE_FAMILY,0.26,"1914 Abbotsford Dr, Vienna, VA 22182",https://photos.zillowstatic.com/fp/51ee744fbd0c56aa2410903f5505e548-p_e.jpg,1070000,,-77.273346,38.918213,RECENTLY_SOLD,51745531,3094.0,-1,4.0,4.0,USA,USD,acres,True,
345,25,1632726000000,SINGLE_FAMILY,0.29,"904 Country Club Dr NE, Vienna, VA 22180",https://photos.zillowstatic.com/fp/6381e017a0bef74175930a8c1f43a64c-p_e.jpg,1075000,,-77.25646,38.91917,RECENTLY_SOLD,51746437,2675.0,-1,4.0,3.0,USA,USD,sqft,True,
346,26,1632466800000,SINGLE_FAMILY,0.25,"8151 Woodland Ct, Dunn Loring, VA 22027",https://photos.zillowstatic.com/fp/16ec21c459c16395183a3e013ea45fde-p_e.jpg,910000,,-77.22693,38.891956,RECENTLY_SOLD,51778205,2490.0,-1,5.0,3.0,USA,USD,sqft,True,
347,27,1632466800000,SINGLE_FAMILY,0.30378787878788,"2160 Bonaventure Dr, Vienna, VA 22181","https://maps.googleapis.com/maps/api/staticmap?mobile=false&sensor=true&maptype=satellite&size=575x242&zoom=17&center=38.90949630737305,-77.28331756591797&key=AIzaSyBJsNQO5ZeG-XAbqqWLKwG08fWITSxg33w&signature=8axLZwd6ta0xc1Q1YfDKctNFCt8=",447075,,-77.28332,38.909496,RECENTLY_SOLD,51769398,3448.0,-1,4.0,4.5,USA,USD,acres,,
348,28,1632466800000,SINGLE_FAMILY,0.26,"9626 Podium Dr, Vienna, VA 22182",https://photos.zillowstatic.com/fp/2418e4f8ae1d9e6e0a3613cace036859-p_e.jpg,732000,,-77.2798,38.91659,RECENTLY_SOLD,51769049,2230.0,-1,4.0,3.0,USA,USD,sqft,True,
349,29,1632466800000,SINGLE_FAMILY,0.32,"611 John Marshall Dr NE, Vienna, VA 22180",https://photos.zillowstatic.com/fp/6d9922f75bb202a5e10635f2c197a91f-p_e.jpg,775000,,-77.26469,38.916138,RECENTLY_SOLD,51769951,2308.0,-1,4.0,3.0,USA,USD,sqft,True,
350,30,1632466800000,SINGLE_FAMILY,0.34,"107 Yeonas Cir SE, Vienna, VA 22180",https://photos.zillowstatic.com/fp/9c351f29c61a422b1e20621fdeb0004d-p_e.jpg,780000,,-77.24859,38.8891,RECENTLY_SOLD,51776833,1196.0,-1,4.0,3.0,USA,USD,sqft,True,
351,31,1632466800000,SINGLE_FAMILY,0.3,"115 Harmony Dr SE, Vienna, VA 22180",https://photos.zillowstatic.com/fp/36918d7c87cae4064808f76224b96efb-p_e.jpg,925000,,-77.25174,38.894608,RECENTLY_SOLD,51772316,1752.0,-1,4.0,3.0,USA,USD,acres,True,
352,32,1632466800000,SINGLE_FAMILY,0.29,"1201 Ross Dr SW, Vienna, VA 22180",https://photos.zillowstatic.com/fp/9e75b5b404119c1e2a64317e936b1096-p_e.jpg,1558625,,-77.25277,38.88478,RECENTLY_SOLD,51803765,5116.0,-1,5.0,5.0,USA,USD,acres,True,True
353,33,1632380400000,SINGLE_FAMILY,0.30998622589532,"1024 Hillcrest Dr SW, Vienna, VA 22180",https://photos.zillowstatic.com/fp/ce43ae4dd68f68453e82922537608f24-p_e.jpg,1400000,,-77.25577,38.886734,RECENTLY_SOLD,51803495,4125.0,-1,4.0,4.0,USA,USD,acres,True,
354,34,1632380400000,SINGLE_FAMILY,0.27203856749311,"1714 Paisley Blue Ct, Vienna, VA 22182","https://maps.googleapis.com/maps/api/staticmap?mobile=false&sensor=true&maptype=satellite&size=575x242&zoom=17&center=38.92328643798828,-77.24365997314453&key=AIzaSyBJsNQO5ZeG-XAbqqWLKwG08fWITSxg33w&signature=mlose57KvvalGl7XWfg8Fg2iqyI=",1005000,,-77.24366,38.923286,RECENTLY_SOLD,51748646,2479.0,-1,4.0,3.5,USA,USD,acres,,
355,35,1632380400000,SINGLE_FAMILY,0.97004132231405,"1320 Wester Mill Ct, Great Falls, VA 22066","https://maps.googleapis.com/maps/api/staticmap?mobile=false&sensor=true&maptype=satellite&size=575x242&zoom=17&center=38.95108413696289,-77.2598876953125&key=AIzaSyBJsNQO5ZeG-XAbqqWLKwG08fWITSxg33w&signature=u4nBNVrsLBAoSgazO9CR5N4-Ms0=",2271740,,-77.25989,38.951084,RECENTLY_SOLD,306650189,,-1,,,USA,USD,acres,,
356,36,1632294000000,SINGLE_FAMILY,1.47,"1430 Carrington Ln, Vienna, VA 22182",https://photos.zillowstatic.com/fp/bc2f65adbc7c1c4e0921f7401bb1842d-p_e.jpg,1320000,,-77.276405,38.949184,RECENTLY_SOLD,51724871,3337.0,-1,5.0,4.0,USA,USD,sqft,True,
357,37,1632294000000,SINGLE_FAMILY,0.62809917355372,"300 Niblick Dr SE, Vienna, VA 22180","https://maps.googleapis.com/maps/api/staticmap?mobile=false&sensor=true&maptype=satellite&size=575x242&zoom=17&center=38.909149169921875,-77.24917602539062&key=AIzaSyBJsNQO5ZeG-XAbqqWLKwG08fWITSxg33w&signature=UwVQBtYj6nnfE6xcyzHjAd4BAz4=",1100000,,-77.249176,38.90915,RECENTLY_SOLD,51773461,1138.0,-1,4.0,2.0,USA,USD,acres,,
359,39,1632207600000,SINGLE_FAMILY,0.24,"212 Yeonas Dr SW, Vienna, VA 22180",https://photos.zillowstatic.com/fp/19c07f6baa7b796a10102f8b74ce9efc-p_e.jpg,1600000,,-77.25459,38.887123,RECENTLY_SOLD,51803528,4679.0,-1,5.0,5.0,USA,USD,sqft,True,
360,0,1632207600000,SINGLE_FAMILY,0.68,"1261 Cobble Pond Way, Vienna, VA 22182",https://photos.zillowstatic.com/fp/846e5bc83ba1cfed0f0fb7097d4a7aa4-p_e.jpg,1300000,,-77.31072,38.973,RECENTLY_SOLD,51711924,5658.0,-1,4.0,5.0,USA,USD,sqft,True,
361,1,1632207600000,SINGLE_FAMILY,1.12,"9617 Chathams Ford Dr, Vienna, VA 22182",https://photos.zillowstatic.com/fp/5298ae5984873935df5586b56410c9cf-p_e.jpg,1220000,,-77.28056,38.94077,RECENTLY_SOLD,51744830,5297.0,-1,4.0,5.0,USA,USD,sqft,True,
362,2,1632207600000,SINGLE_FAMILY,0.22,"2251 Richelieu Dr, Vienna, VA 22182",https://photos.zillowstatic.com/fp/65d65d0716b04d53fa1917d17d17ab0d-p_e.jpg,1600000,,-77.23975,38.897896,RECENTLY_SOLD,51777430,3161.0,-1,5.0,5.0,USA,USD,sqft,True,
363,3,1632121200000,SINGLE_FAMILY,0.36,"9900 Chappell Ln, Vienna, VA 22181",https://photos.zillowstatic.com/fp/dd93eb79c3f85bf26d0cfa517986ef78-p_e.jpg,1310000,,-77.287704,38.888508,RECENTLY_SOLD,51802794,4196.0,-1,4.0,4.0,USA,USD,sqft,True,
364,4,1632121200000,SINGLE_FAMILY,0.14,"109 Wilmar Pl NW, Vienna, VA 22180",https://photos.zillowstatic.com/fp/2309880ec16bc9d7640b0eb3da7fa65e-p_e.jpg,1345500,,-77.267746,38.90286,RECENTLY_SOLD,51771970,4496.0,-1,5.0,5.0,USA,USD,sqft,True,
365,5,1632121200000,SINGLE_FAMILY,10018.8,"704 Talahi Ct SE, Vienna, VA 22180",https://photos.zillowstatic.com/fp/abaa3b6ee7dd46ae24ec3c315ae2dd7d-p_e.jpg,1252000,,-77.25142,38.900803,RECENTLY_SOLD,51773341,4100.0,-1,4.0,4.0,USA,USD,sqft,True,
366,6,1631862000000,SINGLE_FAMILY,0.39,"300 Branch Rd SE, Vienna, VA 22180",https://photos.zillowstatic.com/fp/ed2c5db43947773b4b567c07c3bfe421-p_e.jpg,880000,,-77.25583,38.904854,RECENTLY_SOLD,51769652,3348.0,-1,4.0,3.0,USA,USD,acres,True,
367,7,1631862000000,SINGLE_FAMILY,5.24,"10201 Katie Bird Ln, Vienna, VA 22181",https://photos.zillowstatic.com/fp/441c58c1cb7b13ac93869b12604f6e8e-p_e.jpg,1425000,,-77.29623,38.921917,RECENTLY_SOLD,51744254,3578.0,-1,6.0,6.0,USA,USD,sqft,True,
368,8,1631862000000,SINGLE_FAMILY,0.29,"8714 Westwood Dr, Vienna, VA 22182",https://photos.zillowstatic.com/fp/ce323ea74e3891b6a64dea19d0136a2b-p_e.jpg,840000,,-77.248985,38.922188,RECENTLY_SOLD,51748480,2780.0,-1,4.0,3.0,USA,USD,acres,True,
369,9,1631862000000,SINGLE_FAMILY,0.93,"1417 Trap Rd, Vienna, VA 22182",https://photos.zillowstatic.com/fp/6e0341c161aad3b0e5d424a6ff164d2b-p_e.jpg,995000,,-77.26466,38.94465,RECENTLY_SOLD,51725476,3712.0,-1,5.0,4.0,USA,USD,sqft,True,
370,10,1631862000000,SINGLE_FAMILY,0.31056014692378,"245 Hillside Cir SW, Vienna, VA 22180","https://maps.googleapis.com/maps/api/staticmap?mobile=false&sensor=true&maptype=satellite&size=575x242&zoom=17&center=38.89348602294922,-77.27000427246094&key=AIzaSyBJsNQO5ZeG-XAbqqWLKwG08fWITSxg33w&signature=KLEmG3QKxZr0HPgf2udE4wz3XEg=",775000,,-77.270004,38.893486,RECENTLY_SOLD,51772013,1239.0,-1,,2.5,USA,USD,acres,,
371,11,1631775600000,SINGLE_FAMILY,0.23,"303 Talahi Rd SE, Vienna, VA 22180",https://photos.zillowstatic.com/fp/281dd0a4993a53432575b5b1c8bc0d37-p_e.jpg,1385000,,-77.25344,38.89978,RECENTLY_SOLD,59787127,5284.0,-1,5.0,4.0,USA,USD,sqft,True,
372,12,1631689200000,SINGLE_FAMILY,0.46,"1888 Cold Creek Ct, Vienna, VA 22182",https://photos.zillowstatic.com/fp/1a3f471411a6dac80565034a65f9e43d-p_e.jpg,850000,,-77.30785,38.935028,RECENTLY_SOLD,51743516,3250.0,-1,5.0,3.0,USA,USD,sqft,True,
373,13,1631689200000,SINGLE_FAMILY,0.24,"104 Oak St SW, Vienna, VA 22180",https://photos.zillowstatic.com/fp/3dbfeeaa753e2df699e3e54034b76fd9-p_e.jpg,1153487,,-77.25856,38.895824,RECENTLY_SOLD,51772892,3541.0,-1,5.0,5.0,USA,USD,sqft,True,
374,14,1631689200000,SINGLE_FAMILY,0.91,"9925 Corsica St, Vienna, VA 22181",https://photos.zillowstatic.com/fp/ccd5168382554752402dc6224e80972a-p_e.jpg,1366000,,-77.28821,38.903152,RECENTLY_SOLD,51768312,4200.0,-1,5.0,5.0,USA,USD,sqft,True,
375,15,1631602800000,SINGLE_FAMILY,0.58,"2504 Rocky Branch Rd, Vienna, VA 22181",https://photos.zillowstatic.com/fp/6df2e9d4ddf74cc42f871183eca244c3-p_e.jpg,830000,,-77.296715,38.8991,RECENTLY_SOLD,51767951,2226.0,-1,5.0,3.0,USA,USD,sqft,True,
376,16,1631602800000,SINGLE_FAMILY,0.54,"9011 Streamview Ln, Vienna, VA 22182",https://photos.zillowstatic.com/fp/2b538328a840c715cf890838453fc41a-p_e.jpg,950000,,-77.25693,38.935963,RECENTLY_SOLD,51744965,2102.0,-1,5.0,3.0,USA,USD,sqft,True,
377,17,1631602800000,SINGLE_FAMILY,0.96115702479339,"9150 Belvedere Branch Dr, Great Falls, VA 22102","https://maps.googleapis.com/maps/api/staticmap?mobile=false&sensor=true&maptype=satellite&size=575x242&zoom=17&center=38.951969146728516,-77.25975799560547&key=AIzaSyBJsNQO5ZeG-XAbqqWLKwG08fWITSxg33w&signature=RCUOMdbmGcPbQ5MAvL8U-iNdqCA=",2584696,,-77.25976,38.95197,RECENTLY_SOLD,306650186,,-1,,,USA,USD,acres,,
378,18,1631602800000,SINGLE_FAMILY,0.51,"121 E St NE, Vienna, VA 22180",https://photos.zillowstatic.com/fp/00bde0d38d56387b88e574ecccb79447-p_e.jpg,1200000,,-77.25547,38.910095,RECENTLY_SOLD,51769753,5096.0,-1,5.0,6.0,USA,USD,acres,True,
379,19,1631516400000,SINGLE_FAMILY,0.31,"1330 Belasco Valley Cir, Great Falls, VA 22102","https://maps.googleapis.com/maps/api/staticmap?mobile=false&sensor=true&maptype=satellite&size=575x242&zoom=17&center=38.95362854003906,-77.26055908203125&key=AIzaSyBJsNQO5ZeG-XAbqqWLKwG08fWITSxg33w&signature=MPbXFoUXAdOs9lbYSHbJj2DaElw=",2151914,,-77.26056,38.95363,RECENTLY_SOLD,306650197,4896.0,-1,6.0,6.0,USA,USD,acres,,
380,20,1631516400000,SINGLE_FAMILY,0.57,"10307 Dunn Meadow Rd, Vienna, VA 22182",https://photos.zillowstatic.com/fp/885ef9191a6b9e372d43abb16298428f-p_e.jpg,1170000,,-77.30692,38.97023,RECENTLY_SOLD,51723539,3912.0,-1,4.0,4.0,USA,USD,sqft,True,
381,21,1631257200000,SINGLE_FAMILY,2.18,"10700 Meadowood Dr, Vienna, VA 22181",https://photos.zillowstatic.com/fp/9cabefa26cfbcd0621828d3be993fa47-p_e.jpg,1605000,,-77.31601,38.926315,RECENTLY_SOLD,51743917,5249.0,-1,5.0,5.0,USA,USD,sqft,True,
382,22,1631257200000,SINGLE_FAMILY,0.25,"2304 Malraux Dr, Vienna, VA 22182",https://photos.zillowstatic.com/fp/c86799014065eba5d6322fa1ef57864c-p_e.jpg,830000,,-77.24248,38.898216,RECENTLY_SOLD,51777385,3360.0,-1,5.0,4.0,USA,USD,sqft,True,
383,23,1631257200000,SINGLE_FAMILY,1.84,"10284 Johns Hollow Rd, Vienna, VA 22182",https://photos.zillowstatic.com/fp/411dcc297712ef4d24bb1e97034ce0f8-p_e.jpg,1775000,,-77.29875,38.950436,RECENTLY_SOLD,51724039,8635.0,-1,5.0,5.0,USA,USD,sqft,True,
384,24,1631257200000,SINGLE_FAMILY,0.5,"1302 Meadow Glen Dr, Vienna, VA 22182",https://photos.zillowstatic.com/fp/6f6966995a8b51024ace602bcf6897e3-p_e.jpg,1257250,,-77.29498,38.96369,RECENTLY_SOLD,51723446,4100.0,-1,4.0,5.0,USA,USD,acres,True,
385,25,1631170800000,SINGLE_FAMILY,0.31,"409 Upham Pl NW, Vienna, VA 22180",https://photos.zillowstatic.com/fp/491da5ac5ee17ffaf21dbf3c96344cea-p_e.jpg,828500,,-77.27727,38.904156,RECENTLY_SOLD,51768354,1236.0,-1,3.0,3.0,USA,USD,acres,True,
386,26,1631170800000,SINGLE_FAMILY,0.58,"10102 Tamarack Dr, Vienna, VA 22182",https://photos.zillowstatic.com/fp/27a8b3f32533c6366d35579dd9fc91c7-p_e.jpg,875000,,-77.29503,38.93471,RECENTLY_SOLD,51743422,2855.0,-1,4.0,3.0,USA,USD,acres,True,
387,27,1631084400000,SINGLE_FAMILY,0.24,"703 Ware St SW, Vienna, VA 22180",https://photos.zillowstatic.com/fp/fe09e07dc30b47208d1f0c6a6709f706-p_e.jpg,1750000,,-77.26688,38.89006,RECENTLY_SOLD,51772177,6050.0,-1,6.0,6.0,USA,USD,sqft,True,
388,28,1631084400000,SINGLE_FAMILY,0.3,"109 Saratoga Waye NE, Vienna, VA 22180",https://photos.zillowstatic.com/fp/51a9b1bcab9adbedff9ca14d379635f6-p_e.jpg,981000,,-77.242775,38.915718,RECENTLY_SOLD,51773789,2604.0,-1,6.0,3.0,USA,USD,acres,True,
389,29,1631084400000,SINGLE_FAMILY,0.61,"335 Beulah Rd NE, Vienna, VA 22180",https://photos.zillowstatic.com/fp/e71061a87753c937ff6a901c515cf68b-p_e.jpg,915000,,-77.261665,38.910015,RECENTLY_SOLD,51769896,1647.0,-1,4.0,2.0,USA,USD,acres,True,
390,30,1631084400000,SINGLE_FAMILY,0.31,"1724 Drewlaine Dr, Vienna, VA 22182","https://maps.googleapis.com/maps/api/staticmap?mobile=false&sensor=true&maptype=satellite&size=575x242&zoom=17&center=38.92280197143555,-77.25640106201172&key=AIzaSyBJsNQO5ZeG-XAbqqWLKwG08fWITSxg33w&signature=SsPna8DM9C6oCHKngFhyG8R5mcw=",1360000,,-77.2564,38.922802,RECENTLY_SOLD,51746967,5240.0,-1,5.0,5.0,USA,USD,sqft,,
391,31,1631084400000,SINGLE_FAMILY,0.24,"504 Park St NE, Vienna, VA 22180",https://photos.zillowstatic.com/fp/73420e123727fc872c5ecff3e2f159ca-p_e.jpg,900000,,-77.26996,38.909027,RECENTLY_SOLD,51770231,2232.0,-1,5.0,3.0,USA,USD,sqft,True,
392,32,1631084400000,SINGLE_FAMILY,0.5178145087236,"9710 Flint Hill Ct, Vienna, VA 22181","https://maps.googleapis.com/maps/api/staticmap?mobile=false&sensor=true&maptype=satellite&size=575x242&zoom=17&center=38.89139938354492,-77.28179168701172&key=AIzaSyBJsNQO5ZeG-XAbqqWLKwG08fWITSxg33w&signature=DD88tND2MV7ucxxYO6Uuf8JNlJo=",855000,,-77.28179,38.8914,RECENTLY_SOLD,51770690,2091.0,-1,4.0,3.0,USA,USD,acres,,
393,33,1630998000000,SINGLE_FAMILY,0.3,"10300 Lewis Knolls Dr, Oakton, VA 22124",https://photos.zillowstatic.com/fp/fcbc6c4927c5954d5644af495b8a284f-p_e.jpg,1125000,,-77.30099,38.88931,RECENTLY_SOLD,51768243,3854.0,-1,5.0,4.0,USA,USD,sqft,True,
395,35,1630998000000,SINGLE_FAMILY,0.29,"604 Truman Cir SW, Vienna, VA 22180",https://photos.zillowstatic.com/fp/775aa4eae1465c6c22272fcb78a2d3f6-p_e.jpg,1718000,,-77.265274,38.88693,RECENTLY_SOLD,51804044,5280.0,-1,5.0,5.0,USA,USD,sqft,True,
396,36,1630911600000,SINGLE_FAMILY,0.35,"9206 Bois Ave, Vienna, VA 22182",https://photos.zillowstatic.com/fp/b4392aad2b26868a2cb29fb9bb4f7b05-p_e.jpg,960000,,-77.26461,38.932007,RECENTLY_SOLD,51745165,2714.0,-1,4.0,3.0,USA,USD,acres,True,
397,37,1630652400000,SINGLE_FAMILY,0.48,"1405 Wolftrap Run Rd, Vienna, VA 22182",https://photos.zillowstatic.com/fp/33c2ba8de89073d6911d8db7fc2c5bc0-p_e.jpg,1000000,,-77.25896,38.9436,RECENTLY_SOLD,51745057,3117.0,-1,5.0,3.0,USA,USD,acres,True,
398,38,1630652400000,SINGLE_FAMILY,0.58,"1712 Broadfield Ln, Vienna, VA 22182",https://photos.zillowstatic.com/fp/7ebf7da7b970052015f0e50b66953e0d-p_e.jpg,1250000,,-77.30699,38.940384,RECENTLY_SOLD,51743643,4980.0,-1,5.0,5.0,USA,USD,acres,True,
399,39,1630652400000,SINGLE_FAMILY,0.83,"1805 Pillory Dr, Vienna, VA 22182",https://photos.zillowstatic.com/fp/e760839c2c671721ffbb1dc16e18f3be-p_e.jpg,1900000,,-77.28178,38.924526,RECENTLY_SOLD,51746092,6595.0,-1,5.0,6.0,USA,USD,acres,True,
400,0,1630652400000,SINGLE_FAMILY,0.38,"1008 Mountfort Ct SW, Vienna, VA 22180",https://photos.zillowstatic.com/fp/87fc166a2abe0e1e301601f19b88968d-p_e.jpg,1651000,,-77.26097,38.885708,RECENTLY_SOLD,51804224,5926.0,-1,6.0,5.0,USA,USD,acres,True,
401,1,1630652400000,SINGLE_FAMILY,0.58,"9821 Days Farm Dr, Vienna, VA 22182",https://photos.zillowstatic.com/fp/8615cfaebfadbf0484611fce8ca693b3-p_e.jpg,1250000,,-77.29037,38.948723,RECENTLY_SOLD,51725360,4164.0,-1,4.0,4.0,USA,USD,sqft,True,
402,2,1630652400000,SINGLE_FAMILY,0.37,"303 Niblick Dr SE, Vienna, VA 22180",https://photos.zillowstatic.com/fp/2b3ace8acf4c5d4620e1feaa11d4d5b7-p_e.jpg,2050000,,-77.24991,38.908813,RECENTLY_SOLD,125705244,6394.0,-1,5.0,6.0,USA,USD,acres,True,
403,3,1630566000000,SINGLE_FAMILY,0.28,"2730 Bowling Green Dr, Vienna, VA 22180",https://photos.zillowstatic.com/fp/18696eb3fb607ffcea29f436e21d6696-p_e.jpg,810000,,-77.242325,38.881,RECENTLY_SOLD,51808552,1828.0,-1,4.0,3.0,USA,USD,acres,True,
404,4,1630566000000,SINGLE_FAMILY,0.3,"1010 Westwood Dr NE, Vienna, VA 22180",https://photos.zillowstatic.com/fp/f570b226ff1ba34ba671fa3603ed366f-p_e.jpg,1121000,,-77.25161,38.92001,RECENTLY_SOLD,51746421,1743.0,-1,4.0,3.0,USA,USD,sqft,True,
405,5,1630566000000,SINGLE_FAMILY,0.34,"8557 Doveton Cir, Vienna, VA 22182",https://photos.zillowstatic.com/fp/ca827283b78b8edd5827e9238b8de29e-p_e.jpg,1595000,,-77.2394,38.91268,RECENTLY_SOLD,51774125,7812.0,-1,6.0,5.0,USA,USD,sqft,True,
406,6,1630566000000,SINGLE_FAMILY,0.9175160697888,"9195 Farber Forge Ct, Great Falls, VA 22102","https://maps.googleapis.com/maps/api/staticmap?mobile=false&sensor=true&maptype=satellite&size=575x242&zoom=17&center=38.95391082763672,-77.25901794433594&key=AIzaSyBJsNQO5ZeG-XAbqqWLKwG08fWITSxg33w&signature=NQKpcXoO0HMtr7DRPlRZEQ6c4gE=",2442710,,-77.25902,38.95391,RECENTLY_SOLD,306650180,5745.0,-1,5.0,5.5,USA,USD,acres,,
407,7,1630479600000,SINGLE_FAMILY,0.26,"8335 Wesleyan St, Vienna, VA 22180",https://photos.zillowstatic.com/fp/0a56a3cc6b436247706a5ebc984e993d-p_e.jpg,760000,,-77.23466,38.881977,RECENTLY_SOLD,51808305,2984.0,-1,5.0,3.0,USA,USD,sqft,True,
408,8,1630479600000,SINGLE_FAMILY,0.62,"2400 Beekay Ct, Vienna, VA 22181",https://photos.zillowstatic.com/fp/f75ca1c1744a1623596fff35b725a30b-p_e.jpg,880000,,-77.30125,38.907513,RECENTLY_SOLD,51767063,2760.0,-1,5.0,3.0,USA,USD,sqft,True,
409,9,1630479600000,SINGLE_FAMILY,2.8069788797062,"2368 Hunter Mill Rd, Vienna, VA 22181",https://photos.zillowstatic.com/fp/c76ee5fc88e5059f5a284f766f0cbb91-p_e.jpg,2900000,,-77.30395,38.908092,RECENTLY_SOLD,51766883,10030.0,-1,6.0,9.0,USA,USD,acres,True,
410,10,1630479600000,SINGLE_FAMILY,0.58,"2517 Flint Hill Rd, Vienna, VA 22181",https://photos.zillowstatic.com/fp/8c7117b50b7fa8add69f4e4c8c32d65a-p_e.jpg,2288000,,-77.281494,38.894325,RECENTLY_SOLD,51770673,7400.0,-1,4.0,5.0,USA,USD,acres,True,True
411,11,1630479600000,SINGLE_FAMILY,1.52,"1283 Serenity Woods Ln, Vienna, VA 22182",https://photos.zillowstatic.com/fp/e29bc59f1b93c54ed6c600f9408b2ff5-p_e.jpg,1716262,,-77.28555,38.96395,RECENTLY_SOLD,168097075,4061.0,-1,5.0,6.0,USA,USD,sqft,True,
412,12,1630393200000,SINGLE_FAMILY,9997.0,"617 John Marshall Dr NW, Vienna, VA 22180",https://photos.zillowstatic.com/fp/2b8a2f8575d25e9fd81da500dc26c2ce-p_e.jpg,1550000,,-77.27353,38.905132,RECENTLY_SOLD,51768395,4800.0,-1,5.0,5.0,USA,USD,sqft,True,
413,13,1630393200000,SINGLE_FAMILY,0.27,"105 Oak St SW, Vienna, VA 22180",https://photos.zillowstatic.com/fp/2007c5dbe5d08eb33535a9f848468de4-p_e.jpg,1900000,,-77.259026,38.89633,RECENTLY_SOLD,51772591,5462.0,-1,6.0,6.0,USA,USD,acres,True,
414,14,1630393200000,SINGLE_FAMILY,0.94,"1847 Hunter Mill Rd, Vienna, VA 22182",https://photos.zillowstatic.com/fp/35db86d0bffedbd37f6cf67c1e2c4e27-p_e.jpg,1440000,,-77.306076,38.939545,RECENTLY_SOLD,68839137,9108.0,-1,7.0,8.0,USA,USD,acres,True,
415,15,1630393200000,SINGLE_FAMILY,0.29,"811 Plum St SW, Vienna, VA 22180",https://photos.zillowstatic.com/fp/e3dd6a9c8a9344543512aac36a3f34d2-p_e.jpg,1887045,,-77.25843,38.89314,RECENTLY_SOLD,51772032,5582.0,-1,5.0,6.0,USA,USD,acres,True,
416,16,1630393200000,SINGLE_FAMILY,0.29,"807 Plum St SW, Vienna, VA 22180","https://maps.googleapis.com/maps/api/staticmap?mobile=false&sensor=true&maptype=satellite&size=575x242&zoom=17&center=38.8932991027832,-77.25885772705078&key=AIzaSyBJsNQO5ZeG-XAbqqWLKwG08fWITSxg33w&signature=iu2wD8_A9-ldA2DhReFKtsC8BXM=",1984900,,-77.25886,38.8933,PENDING,51772786,1058.0,-1,3.0,2.0,USA,USD,sqft,,True
417,17,1630306800000,SINGLE_FAMILY,0.44485766758494,"1916 Prelude Dr, Vienna, VA 22182","https://maps.googleapis.com/maps/api/staticmap?mobile=false&sensor=true&maptype=satellite&size=575x242&zoom=17&center=38.919551849365234,-77.28030395507812&key=AIzaSyBJsNQO5ZeG-XAbqqWLKwG08fWITSxg33w&signature=5QYnjPMXmsxgfIG7L5Tt6KpQqws=",750000,,-77.280304,38.91955,RECENTLY_SOLD,51745721,1092.0,-1,3.0,2.0,USA,USD,acres,,
418,18,1630306800000,SINGLE_FAMILY,0.29,"10208 Castlewood Ln, Oakton, VA 22124",https://photos.zillowstatic.com/fp/48dbe86b91f5d7dee7ee6178bc0dfb74-p_e.jpg,1320000,,-77.29779,38.886745,RECENTLY_SOLD,51799945,5490.0,-1,5.0,5.0,USA,USD,acres,True,
419,19,1630306800000,SINGLE_FAMILY,0.24,"410 Yeonas Dr SW, Vienna, VA 22180",https://photos.zillowstatic.com/fp/c5f9f762adb0ce4f1cf0919e0d1542e4-p_e.jpg,825000,,-77.25613,38.885403,RECENTLY_SOLD,51803593,1788.0,-1,4.0,2.0,USA,USD,sqft,True,
420,20,1630306800000,SINGLE_FAMILY,0.37,"8851 Jarrett Valley Dr, Vienna, VA 22182",https://photos.zillowstatic.com/fp/fdf656ebda12479ef5acad97e39eb510-p_e.jpg,1750000,,-77.254745,38.933826,RECENTLY_SOLD,59786705,4423.0,-1,6.0,6.0,USA,USD,acres,True,
421,21,1630047600000,SINGLE_FAMILY,1.89,"2050 Crossing Gate Way, Vienna, VA 22181",https://photos.zillowstatic.com/fp/f7b4bbfba5540014a273174563fd04e0-p_e.jpg,1300000,,-77.31863,38.9299,RECENTLY_SOLD,51744180,4549.0,-1,4.0,5.0,USA,USD,sqft,True,
422,22,1630047600000,SINGLE_FAMILY,0.46,"9901 Chappell Ln, Vienna, VA 22181",https://photos.zillowstatic.com/fp/6bc861a13f3eab799d6b579a7e97e26b-p_e.jpg,1796628,,-77.28734,38.888046,RECENTLY_SOLD,51802786,3644.0,-1,4.0,5.0,USA,USD,acres,True,
423,23,1630047600000,SINGLE_FAMILY,10454.4,"8313 McNeil St, Vienna, VA 22180",https://photos.zillowstatic.com/fp/f64483ee949c7374976f15fa82a8a988-p_e.jpg,765000,,-77.23309,38.890347,RECENTLY_SOLD,51777147,1778.0,-1,4.0,3.0,USA,USD,sqft,True,
424,24,1630047600000,SINGLE_FAMILY,0.22,"2151 Westglen Ct, Vienna, VA 22182",https://photos.zillowstatic.com/fp/4f17cded8c56ef665b2a497b78cc7c29-p_e.jpg,1185000,,-77.23667,38.904827,RECENTLY_SOLD,51774096,3364.0,-1,5.0,6.0,USA,USD,sqft,True,
425,25,1629961200000,SINGLE_FAMILY,0.27,"713 Kingsley Rd SW, Vienna, VA 22180",https://photos.zillowstatic.com/fp/2df7e03451d4739f5408e73c1e5b7c78-p_e.jpg,1680000,,-77.26793,38.884327,RECENTLY_SOLD,51804127,6066.0,-1,6.0,7.0,USA,USD,sqft,True,
426,26,1629961200000,SINGLE_FAMILY,0.27114325068871,"713 Kingsley Rd SW, Vienna, VA 22180","https://maps.googleapis.com/maps/api/staticmap?mobile=false&sensor=true&maptype=satellite&size=575x242&zoom=17&center=38.88432693481445,-77.26792907714844&key=AIzaSyBJsNQO5ZeG-XAbqqWLKwG08fWITSxg33w&signature=F3j6-46Y2nq9Rxe6OJ0VI2TSVVA=",1680000,,-77.26793,38.884327,RECENTLY_SOLD,305373993,,-1,3.0,2.0,USA,USD,acres,,
427,27,1629961200000,SINGLE_FAMILY,0.36,"9021 Weatherwood Ct, Vienna, VA 22182",https://photos.zillowstatic.com/fp/e6c594a47db1dbae6965a41dfb65dae8-p_e.jpg,1140000,,-77.25822,38.942673,RECENTLY_SOLD,51745063,1706.0,-1,5.0,4.0,USA,USD,sqft,True,
428,28,1629961200000,SINGLE_FAMILY,2.86,"9018 Dellwood Dr, Vienna, VA 22180",https://photos.zillowstatic.com/fp/9cc7d0e9ba2c43ba60125dc50beb6fb1-p_e.jpg,1150000,,-77.2563,38.87973,RECENTLY_SOLD,51804207,4015.0,-1,5.0,5.0,USA,USD,sqft,True,
429,29,1629961200000,SINGLE_FAMILY,0.32,"111 Tapawingo Rd SE, Vienna, VA 22180",https://photos.zillowstatic.com/fp/1c7ef8b4e6a9ff81f20a97a0195fa4a8-p_e.jpg,769000,,-77.253334,38.895035,RECENTLY_SOLD,51772350,1965.0,-1,3.0,2.0,USA,USD,acres,True,
430,30,1629961200000,SINGLE_FAMILY,0.61189164370983,"1366 Blairstone Dr, Vienna, VA 22182",https://photos.zillowstatic.com/fp/db6994d6602d3459196aba31e8fb7df9-p_e.jpg,2500000,,-77.28351,38.956356,RECENTLY_SOLD,117486604,9950.0,-1,8.0,10.0,USA,USD,acres,True,
431,31,1629788400000,SINGLE_FAMILY,0.5,"705 Hillcrest Dr SW, Vienna, VA 22180",https://photos.zillowstatic.com/fp/fb888a23f033f2ebcd6a0dc10214647c-p_e.jpg,2150000,,-77.26185,38.89179,RECENTLY_SOLD,51772304,6284.0,-1,5.0,8.0,USA,USD,acres,True,
432,32,1629788400000,SINGLE_FAMILY,0.26,"8311 McNeil St, Vienna, VA 22180",https://photos.zillowstatic.com/fp/50e77a61d1bfd58eba62b16fa50e4f3b-p_e.jpg,960000,,-77.23282,38.89039,RECENTLY_SOLD,51777148,2899.0,-1,4.0,3.0,USA,USD,sqft,True,
433,33,1629702000000,SINGLE_FAMILY,0.17,"2832 Edgelea Rd, Vienna, VA 22181",https://photos.zillowstatic.com/fp/7732ddeb28b093145dcc1150ad3d131a-p_e.jpg,885000,,-77.289474,38.88132,RECENTLY_SOLD,51802363,2260.0,-1,4.0,4.0,USA,USD,sqft,True,
434,34,1629702000000,SINGLE_FAMILY,0.36,"9702 Decree Ln, Vienna, VA 22181",https://photos.zillowstatic.com/fp/75cc5c63b78eed68df8f04a8c353d891-p_e.jpg,799000,,-77.279724,38.90904,RECENTLY_SOLD,51768662,2200.0,-1,5.0,3.0,USA,USD,acres,True,
435,35,1629442800000,SINGLE_FAMILY,0.24,"1725 Larkmeade Dr, Vienna, VA 22182",https://photos.zillowstatic.com/fp/d5c38b01c93b2f53815c6447e9ba92ea-p_e.jpg,905000,,-77.2504,38.921886,RECENTLY_SOLD,51746235,3069.0,-1,5.0,4.0,USA,USD,sqft,True,
436,36,1629442800000,SINGLE_FAMILY,2.49,"10313 Forest Maple Rd, Vienna, VA 22182",https://photos.zillowstatic.com/fp/773ead3e48c2b624a7cb291173ec8426-p_e.jpg,1720000,,-77.304276,38.94967,RECENTLY_SOLD,51724051,7108.0,-1,5.0,5.0,USA,USD,sqft,True,
437,37,1629442800000,SINGLE_FAMILY,0.29,"403 John Marshall Dr NE, Vienna, VA 22180",https://photos.zillowstatic.com/fp/3de187c9a01805c2c5c3a97df63fbb55-p_e.jpg,985000,,-77.26899,38.912792,RECENTLY_SOLD,51769550,3092.0,-1,3.0,3.0,USA,USD,acres,True,
438,38,1629442800000,SINGLE_FAMILY,1.26,"9707 Mill Race Estates Dr, Vienna, VA 22182",https://photos.zillowstatic.com/fp/0dda077916184c28fe864c60484ed5e0-p_e.jpg,1460000,,-77.28248,38.950626,RECENTLY_SOLD,51725425,6267.0,-1,5.0,5.0,USA,USD,sqft,True,
439,39,1629442800000,SINGLE_FAMILY,0.64,"9951 Woodrow St, Vienna, VA 22181",https://photos.zillowstatic.com/fp/4ac62006344616d1d26389cde64915a7-p_e.jpg,920000,,-77.291595,38.905476,RECENTLY_SOLD,51766995,2510.0,-1,4.0,4.0,USA,USD,acres,True,
440,0,1629442800000,SINGLE_FAMILY,10454.4,"2007 Westwood Ter, Vienna, VA 22182",https://photos.zillowstatic.com/fp/f75d9b37ae0615809eb751f87a221428-p_e.jpg,1110400,,-77.24349,38.910625,RECENTLY_SOLD,51773810,2643.0,-1,4.0,3.0,USA,USD,sqft,True,
441,1,1629442800000,SINGLE_FAMILY,0.82777777777778,"1334 Belasco Valley Cir, Great Falls, VA 22102","https://maps.googleapis.com/maps/api/staticmap?mobile=false&sensor=true&maptype=satellite&size=575x242&zoom=17&center=38.95282745361328,-77.26090240478516&key=AIzaSyBJsNQO5ZeG-XAbqqWLKwG08fWITSxg33w&signature=cSYmovg2RH5VhyS2c4QBTRFA-f8=",2416405,,-77.2609,38.952827,RECENTLY_SOLD,306650195,,-1,,,USA,USD,acres,,
443,3,1629356400000,SINGLE_FAMILY,0.43,"1906 Memory Ct, Vienna, VA 22182",https://photos.zillowstatic.com/fp/2750bf20fbd02fe7daf8bc62040e2776-p_e.jpg,920000,,-77.27729,38.919632,RECENTLY_SOLD,51745716,2440.0,-1,3.0,3.0,USA,USD,acres,True,
444,4,1629356400000,SINGLE_FAMILY,0.37,"10035 Glencroft Ct, Vienna, VA 22181",https://photos.zillowstatic.com/fp/cbcda80a2ae75a6165f6f8a0ceadb3e7-p_e.jpg,960000,,-77.29226,38.887737,RECENTLY_SOLD,51799407,2924.0,-1,5.0,4.0,USA,USD,sqft,True,
445,5,1629270000000,SINGLE_FAMILY,0.3,"210 Whispering Wind Ct SE, Vienna, VA 22180",https://photos.zillowstatic.com/fp/574d6045ac43dc7ea27fc3eecc649a94-p_e.jpg,965000,,-77.256424,38.90041,RECENTLY_SOLD,51773153,2880.0,-1,4.0,4.0,USA,USD,acres,True,
446,6,1629270000000,SINGLE_FAMILY,0.46,"10402 Trumpeter Ct, Vienna, VA 22182",https://photos.zillowstatic.com/fp/efcbc179c93cef45902ab3254cff2383-p_e.jpg,950000,,-77.304504,38.94043,RECENTLY_SOLD,51743350,2630.0,-1,4.0,3.0,USA,USD,acres,True,
447,7,1629270000000,SINGLE_FAMILY,2.21,"1451 Beulah Rd, Vienna, VA 22182",https://photos.zillowstatic.com/fp/1768e9e09432de303d9dc0b47be00c16-p_e.jpg,910000,,-77.283714,38.94971,RECENTLY_SOLD,51725373,5915.0,-1,4.0,4.0,USA,USD,sqft,True,
448,8,1629183600000,SINGLE_FAMILY,1.69,"1284 Serenity Woods Ln, Vienna, VA 22182",https://photos.zillowstatic.com/fp/97dd390771fe9f583662e5c506dec24c-p_e.jpg,2300000,,-77.28633,38.96394,RECENTLY_SOLD,51724524,7808.0,-1,5.0,7.0,USA,USD,sqft,True,
449,9,1629183600000,SINGLE_FAMILY,0.46,"10373 Leigh Jillion Ct, Oakton, VA 22124",https://photos.zillowstatic.com/fp/a968a55e5d3ba1b12c5309f379fd3668-p_e.jpg,1400000,,-77.30398,38.890335,RECENTLY_SOLD,59787092,5834.0,-1,5.0,5.0,USA,USD,acres,True,
450,10,1629183600000,SINGLE_FAMILY,0.38,"9628 Cinnamon Creek Dr, Vienna, VA 22182",https://photos.zillowstatic.com/fp/f76c561d228fc49c02d3f140c0eab700-p_e.jpg,785000,,-77.2752,38.943233,RECENTLY_SOLD,51744559,2720.0,-1,5.0,3.0,USA,USD,acres,True,
451,11,1629183600000,SINGLE_FAMILY,0.31,"1906 Beulah Rd, Vienna, VA 22182",https://photos.zillowstatic.com/fp/3d80e6dff5b786d2ee6ed8216ab31093-p_e.jpg,810000,,-77.26829,38.918056,RECENTLY_SOLD,51746913,1452.0,-1,3.0,3.0,USA,USD,acres,True,
452,12,1629183600000,SINGLE_FAMILY,0.29003673094582,"618 Ninovan Rd SE, Vienna, VA 22180","https://maps.googleapis.com/maps/api/staticmap?mobile=false&sensor=true&maptype=satellite&size=575x242&zoom=17&center=38.900535583496094,-77.25336456298828&key=AIzaSyBJsNQO5ZeG-XAbqqWLKwG08fWITSxg33w&signature=yXCYttinb8fqU1klMO46YnLFhLY=",835000,,-77.253365,38.900536,RECENTLY_SOLD,51773286,1602.0,-1,3.0,3.0,USA,USD,acres,,
453,13,1629097200000,SINGLE_FAMILY,0.39,"9139 Ermantrude Ct, Vienna, VA 22182",https://photos.zillowstatic.com/fp/9df6a156428815f22ab6921c5ef91bf5-p_e.jpg,1200000,,-77.257675,38.93112,RECENTLY_SOLD,51745247,4638.0,-1,5.0,5.0,USA,USD,acres,True,
454,14,1629097200000,SINGLE_FAMILY,0.47,"1612 Sereno Ct, Vienna, VA 22182",https://photos.zillowstatic.com/fp/3559fe187539e2e72426a7270efd3218-p_e.jpg,1020000,,-77.29071,38.94228,RECENTLY_SOLD,51744786,3400.0,-1,4.0,4.0,USA,USD,acres,True,
455,15,1629097200000,SINGLE_FAMILY,0.26974288337925,"9850 Snowbound Ct, Vienna, VA 22181","https://maps.googleapis.com/maps/api/staticmap?mobile=false&sensor=true&maptype=satellite&size=575x242&zoom=17&center=38.88115310668945,-77.28546142578125&key=AIzaSyBJsNQO5ZeG-XAbqqWLKwG08fWITSxg33w&signature=WpK72NQGB3w-WX_PJ4vduoD1Cac=",750000,,-77.28546,38.881153,RECENTLY_SOLD,51801754,1700.0,-1,4.0,3.0,USA,USD,acres,,
456,16,1629097200000,SINGLE_FAMILY,10454.4,"2241 Richelieu Dr, Vienna, VA 22182",https://photos.zillowstatic.com/fp/2254aa87a72d60dd7247b6953dccb788-p_e.jpg,805000,,-77.23972,38.89902,RECENTLY_SOLD,51777435,2011.0,-1,4.0,3.0,USA,USD,sqft,True,
